X,Y,Index_,ACCNUM,YEAR,DATE,TIME,HOUR,STREET1,STREET2,OFFSET,ROAD_CLASS,District,WardNum,Division,LATITUDE,LONGITUDE,LOCCOORD,ACCLOC,TRAFFCTL,VISIBILITY,LIGHT,RDSFCOND,ACCLASS,IMPACTYPE,INVTYPE,INVAGE,INJURY,FATAL_NO,INITDIR,VEHTYPE,MANOEUVER,DRIVACT,DRIVCOND,PEDTYPE,PEDACT,PEDCOND,CYCLISTYPE,CYCACT,CYCCOND,PEDESTRIAN,CYCLIST,AUTOMOBILE,MOTORCYCLE,TRUCK,TRSN_CITY_VEH,EMERG_VEH,PASSENGER,SPEEDING,AG_DRIV,REDLIGHT,ALCOHOL,DISABILITY,Hood_ID,Neighbourhood,ObjectId
-8819263.28100403,5441138.77264503,3363207,882024,2006,2006/01/07 05:00:00+00,2325,23,STEELES AVE E,NINTH LINE ST,,Minor Arterial,Scarborough,25,42,43.842745,-79.22479,Mid-Block,,No Control,Clear,Dark,Wet,Fatal,Approaching,Driver,50 to 54,Fatal,,West,"Automobile, Station Wagon",Going Ahead,Lost control,Unknown,,,,,,,,,Yes,,,,,,,,,,,131,Rouge (131),1
-8856366.06728543,5422435.86250372,3363869,882497,2006,2006/01/08 05:00:00+00,1828,18,ISLINGTON AVE,GOLFDOWN DR,,Major Arterial,Etobicoke York,1,23,43.721445,-79.55809,Intersection,At Intersection,Pedestrian Crossover,Clear,Dark,Dry,Fatal,Pedestrian Collisions,Pedestrian,10 to 14,Fatal,,East,Other,,,,Pedestrian hit a PXO/ped. Mid-block signal,"Crossing, Pedestrian Crossover",Normal,,,,Yes,,Yes,,,,,Yes,,Yes,,,,5,Elms-Old Rexdale (5),2
-8825664.15172465,5429832.31315385,3363416,882174,2006,2006/01/09 05:00:00+00,1435,14,KENNEDY RD,GLAMORGAN AVE,,Major Arterial,Scarborough,21,41,43.769445,-79.28229,Intersection,At Intersection,Traffic Signal,Clear,Daylight,Dry,Fatal,Pedestrian Collisions,Pedestrian,75 to 79,Fatal,,East,Other,,,,Vehicle is going straight thru inter.while ped cross without ROW,Crossing without right of way,Unknown,,,,Yes,,Yes,,,,,,,,,,,126,Dorset Park (126),3
-8828525.06263803,5422528.2815471,3363879,882501,2006,2006/01/11 05:00:00+00,1120,11,BARTLEY DR,JINNAH CRT,,Collector,North York,16,54,43.722045,-79.30799,Intersection,,No Control,Clear,Daylight,Wet,Fatal,SMV Other,Passenger,15 to 19,Fatal,,,Other,,,,,,,,,,,,Yes,,,,,Yes,Yes,Yes,,,,43,Victoria Village (43),4
-8824918.31113633,5431358.56929695,3371161,886230,2006,2006/01/21 05:00:00+00,1829,18,MIDLAND AVE,GOODLAND GT,,Major Arterial,Scarborough,,42,43.779345,-79.27559,Intersection,At Intersection,No Control,Clear,Dusk,Dry,Fatal,Pedestrian Collisions,Pedestrian,50 to 54,Fatal,,West,Other,,,,Pedestrian hit at mid-block,"Crossing, no Traffic Control",Normal,,,,Yes,,Yes,,,,,,Yes,Yes,,,,128,Agincourt South-Malvern West (128),5
-8827044.51341048,5426117.93721406,3367753,884560,2006,2006/01/24 05:00:00+00,145,1,WARDEN AVE,LAWRENCE AVE E,,Major Arterial,Scarborough,21,41,43.745345,-79.29469,Intersection,,Traffic Signal,Clear,Dawn,Dry,Fatal,Angle,Driver,35 to 39,Fatal,,South,"Automobile, Station Wagon",Going Ahead,Exceeding Speed Limit,Unknown,,,,,,,,,Yes,,,,,Yes,Yes,Yes,,,,119,Wexford/Maryvale (119),6
-8813240.89655212,5435075.05765609,3368259,884756,2006,2006/01/24 05:00:00+00,754,7,DEAN PARK RD,BRAYMORE BLVD,,Collector,Scarborough,25,42,43.803445,-79.17069,Intersection,At Intersection,Stop Sign,Clear,Daylight,Wet,Fatal,Pedestrian Collisions,Pedestrian,75 to 79,Fatal,,North,Other,,,,Vehicle turns left while ped crosses with ROW at inter.,Crossing with right of way,Normal,,,,Yes,,Yes,,,,,Yes,,Yes,,,,131,Rouge (131),7
-8836929.68419292,5416676.90123869,3368159,884714,2006,2006/01/24 05:00:00+00,2220,22,MOUNT PLEASANT RD,WHITEHALL RD,,Major Arterial,Toronto and East York,11,53,43.684045,-79.38349,Intersection,At Intersection,No Control,Rain,Dark,Wet,Fatal,Turning Movement,Driver,45 to 49,Fatal,,South,"Automobile, Station Wagon",Turning Left,Driving Properly,Normal,,,,,,,,,Yes,,,,,Yes,Yes,Yes,,,,98,Rosedale-Moore Park (98),8
-8852614.6004457,5406553.53306712,3370087,885650,2006,2006/01/29 05:00:00+00,2048,20,F G GARDINER XY W  W,KIPLING AVE,,,Etobicoke York,3,22,43.618245,-79.52439,Mid-Block,,No Control,Rain,Dark,Wet,Fatal,Pedestrian Collisions,Pedestrian,15 to 19,Fatal,,South,Other,,,,Pedestrian hit at mid-block,Running onto Roadway,Unknown,,,,Yes,,Yes,,,,,,,,,,,17,Mimico (includes Humber Bay Shores) (17),9
-8832610.48795014,5417184.90040215,3376949,888497,2006,2006/02/15 05:00:00+00,935,9,WESTWOOD AVE,WOODYCREST AVE,,Local,Toronto and East York,14,54,43.687345,-79.34469,Intersection,At Intersection,Stop Sign,Clear,Daylight,Dry,Fatal,Pedestrian Collisions,Pedestrian,70 to 74,Fatal,,East,Other,,,,Vehicle turns left while ped crosses with ROW at inter.,Crossing with right of way,Normal,,,,Yes,,,,,,,,,Yes,,,,59,Danforth East York (59),10
-8818728.94744822,5435800.02467491,3378690,889218,2006,2006/02/20 05:00:00+00,1840,18,NEILSON RD,MCLEVIN AVE,,Minor Arterial,Scarborough,,42,43.808145,-79.21999,Mid-Block,,No Control,Clear,Dusk,Dry,Fatal,Pedestrian Collisions,Pedestrian,80 to 84,Fatal,,West,Other,,,,Pedestrian hit at mid-block,"Crossing, no Traffic Control",Normal,,,,Yes,,Yes,,,,,,,,,,,132,Malvern (132),11
-8859093.39480986,5421773.55310957,3382084,890506,2006,2006/02/27 05:00:00+00,501,5,MARTIN GROVE RD,RACINE RD,,Major Arterial,Etobicoke York,1,23,43.717145,-79.58259,Mid-Block,,No Control,Clear,Dark,Dry,Fatal,Pedestrian Collisions,Pedestrian,30 to 34,Fatal,,Unknown,Other,,,,Pedestrian hit at mid-block,Pushing/Working on Vehicle,Unknown,,,,Yes,,Yes,,,,,,Yes,Yes,,,,1,West Humber-Clairville (1),12
-8847838.99429066,5408014.4288031,3385996,891993,2006,2006/03/06 05:00:00+00,2222,22,F G GARDINER XY  W,PARK LAWN RD,,,Etobicoke York,3,22,43.627745,-79.48149,Mid-Block,,No Control,Clear,Dark,Dry,Fatal,Sideswipe,Passenger,15 to 19,Fatal,,,Other,,,,,,,,,,,,Yes,,,,,Yes,,,,Yes,,17,Mimico (includes Humber Bay Shores) (17),13
-8852169.32248252,5406645.79333703,3387199,892453,2006,2006/03/08 05:00:00+00,2018,20,F G GARDINER XY E  E,KIPLING AVE,,,Etobicoke York,3,22,43.618845,-79.52039,Mid-Block,,No Control,Clear,Dark,Dry,Fatal,Rear End,Passenger,5 to 9,Fatal,,,Other,,,,,,,,,,,,Yes,,,,,Yes,,,,,,17,Mimico (includes Humber Bay Shores) (17),14
-8844610.72905766,5412413.88830144,3387731,892658,2006,2006/03/11 05:00:00+00,852,8,BLOOR ST W,DUNDAS ST W,,Major Arterial,Toronto and East York,4,11,43.656345,-79.45249,Intersection,At Intersection,Traffic Signal,Clear,Daylight,Dry,Fatal,Pedestrian Collisions,Pedestrian,65 to 69,Fatal,,North,Other,,,,Vehicle turns left while ped crosses with ROW at inter.,Crossing with right of way,Unknown,,,,Yes,,Yes,,,,,,,Yes,,,,88,High Park North (88),15
-8816479.84845624,5434843.38873295,3388101,892810,2006,2006/03/11 05:00:00+00,915,9,MORNINGSIDE AVE,SHEPPARD AVE E,,Major Arterial,Scarborough,25,42,43.801943,-79.199786,Intersection,At Intersection,Traffic Signal,Clear,Daylight,Dry,Fatal,Turning Movement,Motorcycle Driver,45 to 49,Fatal,,East,Motorcycle,Turning Right,Disobeyed Traffic Control,Unknown,,,,,,,,,Yes,Yes,,,,,,Yes,Yes,,,131,Rouge (131),16
-8822758.71301494,5424515.51490103,3387795,892682,2006,2006/03/12 05:00:00+00,240,2,EGLINTON AVE E,COMMONWEALTH AVE,,Major Arterial,Scarborough,,41,43.734945,-79.25619,Mid-Block,,No Control,Clear,Dark,Dry,Fatal,Pedestrian Collisions,Pedestrian,40 to 44,Fatal,,South,Other,,,,Pedestrian hit at mid-block,"Crossing, no Traffic Control",Normal,,,,Yes,,Yes,,,,,,,,,Yes,,138,Eglinton East (138),17
-8855097.02509039,5418678.27189661,3389259,893251,2006,2006/03/15 05:00:00+00,1535,15,ISLINGTON AVE,DIXON RD,,Major Arterial,Etobicoke York,,23,43.697045,-79.54669,Intersection,At Intersection,Traffic Signal,Clear,Daylight,Dry,Fatal,Pedestrian Collisions,Pedestrian,20 to 24,Fatal,,North,Other,,,,Vehicle is going straight thru inter.while ped cross without ROW,Crossing without right of way,Normal,,,,Yes,,Yes,,,,,,,,,,,6,Kingsview Village-The Westway (6),18
-8836996.4758874,5413552.5511694,3400977,897664,2006,2006/04/15 04:00:00+00,2000,20,YONGE ST,BREADALBANE ST,,Major Arterial,Toronto and East York,13,51,43.663745,-79.38409,Intersection,,No Control,Clear,Dark,Dry,Fatal,Pedestrian Collisions,Pedestrian,40 to 44,Fatal,,West,Other,,,,Pedestrian hit at mid-block,Running onto Roadway,Unknown,,,,Yes,,Yes,,,,,,,,,,,75,Church-Yonge Corridor (75),19
-8825964.71434979,5422451.26561334,3401621,897916,2006,2006/04/18 04:00:00+00,1930,19,WARDEN AVE,COMSTOCK RD,,Major Arterial,Scarborough,20,41,43.721545,-79.28499,Intersection,At Intersection,Traffic Signal,Clear,Daylight,Dry,Fatal,Angle,Passenger,30 to 34,Fatal,,,Other,,,,,,,,,,,,Yes,,,Yes,,Yes,,Yes,Yes,,,120,Clairlea-Birchmount (120),20
-8840080.02578237,5421142.09306588,3402769,898340,2006,2006/04/20 04:00:00+00,843,8,AVENUE RD,CORTLEIGH BLVD,,Major Arterial,North York,8,53,43.713045,-79.41179,Intersection,At Intersection,No Control,Clear,Daylight,Dry,Fatal,Cyclist Collisions,Cyclist,45 to 49,Fatal,,South,Bicycle,Going Ahead,,,,,,"Motorist turns right at non-signal Inter.(stop, yield, no cont.,and dwy) and strikes cyclist.",Driving Properly,Normal,,Yes,,,Yes,,,,,,,,,103,Lawrence Park South (103),21
-8848896.5294532,5428907.4323785,3532637,898350,2006,2006/04/20 04:00:00+00,2053,20,KEELE ST,FINCH AVE W,,Major Arterial,Etobicoke York,,31,43.763445,-79.49099,Intersection,At Intersection,Traffic Signal,Clear,Dark,Dry,Fatal,Cyclist Collisions,Cyclist,15 to 19,Fatal,,North,Bicycle,Making U Turn,,,,,,Cyclist makes u-turn in-front of driver.,Improper Turn,Had Been Drinking,,Yes,,,Yes,,,,,,,,,27,York University Heights (27),22
-8856533.04652162,5428090.53151597,3603054,900120,2006,2006/04/29 04:00:00+00,2136,21,MILLWICK DR,MILVAN DR,,Collector,Etobicoke York,7,31,43.758145,-79.55959,Mid-Block,,No Control,Clear,Dark,Dry,Fatal,SMV Other,Passenger,40 to 44,Fatal,,,Other,,,,,,,,,,,,Yes,,,,,Yes,Yes,Yes,,,,21,Humber Summit (21),23
-8825007.36672897,5415337.76464998,3407617,900159,2006,2006/04/30 04:00:00+00,857,8,QUEEN ST E,FALLINGBROOK RD,,Collector,Scarborough,20,41,43.675345,-79.27639,Intersection,At Intersection,Stop Sign,Clear,Daylight,Dry,Fatal,SMV Other,Driver,55 to 59,Fatal,,East,"Automobile, Station Wagon",Going Ahead,Speed too Fast For Condition,Unknown,,,,,,,,,Yes,,,,,,Yes,Yes,,,,122,Birchcliffe-Cliffside (122),24
-8840803.60247253,5411413.82721356,3409199,900756,2006,2006/05/03 04:00:00+00,1032,10,DUNDAS ST W,SHAW ST,,Major Arterial,Toronto and East York,,14,43.649845,-79.41829,Intersection,At Intersection,Traffic Signal,Clear,Daylight,Dry,Fatal,Pedestrian Collisions,Pedestrian,70 to 74,Fatal,,North,Other,,,,Vehicle turns left while ped crosses with ROW at inter.,Crossing with right of way,Normal,,,,Yes,,Yes,,,,,,,Yes,,,,81,Trinity-Bellwoods (81),25
-8849074.64063847,5426950.07398771,3416416,903449,2006,2006/05/17 04:00:00+00,1810,18,STILECROFT DR,SENTINEL RD,,Local,North York,6,31,43.750745,-79.49259,Mid-Block,,No Control,Rain,Daylight,Wet,Fatal,Pedestrian Collisions,Pedestrian,0 to 4,Fatal,,North,Other,,,,Pedestrian hit at mid-block,Running onto Roadway,Normal,,,,Yes,,Yes,,,,,,,,,,,27,York University Heights (27),26
-8841894.5334823,5421034.28713212,3532752,904456,2006,2006/05/23 04:00:00+00,1840,18,BATHURST ST,GLENCAIRN AVE,,Major Arterial,North York,8,53,43.712345,-79.42809,Intersection,At Intersection,Traffic Signal,Clear,Daylight,Dry,Fatal,Pedestrian Collisions,Pedestrian,40 to 44,Fatal,,West,Other,,,,Vehicle turns right while ped crosses with ROW at inter.,Crossing with right of way,Normal,,,,Yes,,Yes,,,,,,,Yes,,,,39,Bedford Park-Nortown (39),27
-8834992.72505312,5414768.30563326,3422670,905761,2006,2006/05/30 04:00:00+00,2328,23,ROSEDALE VALLEY RD,BAYVIEW AVE,,Minor Arterial,Toronto and East York,,51,43.671645,-79.36609,Mid-Block,,No Control,Clear,Dark,Dry,Fatal,SMV Other,Motorcycle Driver,25 to 29,Fatal,,East,Motorcycle,Going Ahead,Lost control,Normal,,,,,,,,,,Yes,,,,,,Yes,,,,71,Cabbagetown-South St.James Town (71),28
-8828881.28500857,5414506.6740721,3603123,906207,2006,2006/06/02 04:00:00+00,734,7,KINGSTON RD,DUNDAS ST E,,Major Arterial,Toronto and East York,19,55,43.669945,-79.31119,Intersection,,Traffic Signal,Clear,Daylight,Dry,Fatal,Pedestrian Collisions,Pedestrian,50 to 54,Fatal,,East,Other,,,,Vehicle is going straight thru inter.while ped cross without ROW,Crossing without right of way,Inattentive,,,,Yes,,Yes,,,,,,,,,,,63,The Beaches (63),29
-8842373.20729272,5413044.75174196,3425308,906767,2006,2006/06/05 04:00:00+00,1906,19,BLOOR ST W,HAVELOCK ST,,Major Arterial,Toronto and East York,9,14,43.660445,-79.43239,Intersection,At Intersection,Traffic Signal,Clear,Daylight,Dry,Fatal,Pedestrian Collisions,Pedestrian,75 to 79,Fatal,,South,Other,,,,Vehicle turns left while ped crosses with ROW at inter.,Crossing with right of way,Had Been Drinking,,,,Yes,,Yes,,,,,,,Yes,,,,83,Dufferin Grove (83),30
-8823560.21334865,5426379.89810169,3427626,907646,2006,2006/06/10 04:00:00+00,934,9,MIDLAND AVE,ROMULUS DR,,Major Arterial,Scarborough,21,41,43.747045,-79.26339,Mid-Block,,No Control,Clear,Daylight,Dry,Fatal,SMV Other,Passenger,85 to 89,Fatal,,,Other,,,,,,,,,,,,Yes,,,,,Yes,,Yes,,,,127,Bendale (127),31
-8850232.36334272,5403939.87455221,3603195,909261,2006,2006/06/19 04:00:00+00,1208,12,LAKE SHORE BLVD W,FIFTH ST,,Major Arterial,Etobicoke York,3,22,43.601245,-79.50299,Intersection,At Intersection,Traffic Signal,Clear,Daylight,Dry,Fatal,Pedestrian Collisions,Pedestrian,85 to 89,Fatal,,Unknown,Other,,,,Pedestrian involved in a collision with transit vehicle anywhere along roadway,Crossing without right of way,Normal,,,,Yes,,,,,Yes,,,,,,,,18,New Toronto (18),32
-8828424.87509632,5422559.08810058,3603208,909409,2006,2006/06/20 04:00:00+00,2055,20,BARTLEY DR,TISDALE AVE,,Collector,North York,16,54,43.722245,-79.30709,Intersection,At Intersection,Stop Sign,Clear,Dark,Dry,Fatal,SMV Unattended Vehicle,Motorcycle Driver,30 to 34,Fatal,,West,Motorcycle,Going Ahead,Exceeding Speed Limit,Normal,,,,,,,,,Yes,Yes,,,,Yes,Yes,Yes,,,,43,Victoria Village (43),33
-8843519.79804789,5412721.62118363,3445696,914314,2006,2006/07/19 04:00:00+00,2230,22,BLOOR ST W,LANSDOWNE AVE,,Major Arterial,Toronto and East York,9,11,43.658345,-79.44269,Intersection,At Intersection,Traffic Signal,Clear,Dark,Dry,Fatal,Pedestrian Collisions,Pedestrian,45 to 49,Fatal,,South,Other,,,,Vehicle turns right while ped crosses with ROW at inter.,Crossing with right of way,Normal,,,,Yes,,Yes,,,,,,,Yes,,,,93,Dovercourt-Wallace Emerson-Junction (93),34
-8828135.44442026,5423621.97718118,3447077,914846,2006,2006/07/23 04:00:00+00,1357,13,VICTORIA PARK AVE,BISCAYNE BLVD,,Major Arterial,North York,,41,43.729145,-79.30449,Intersection,,No Control,Rain,Daylight,Wet,Fatal,Pedestrian Collisions,Pedestrian,70 to 74,Fatal,,West,Other,,,,Vehicle is going straight thru inter.while ped cross without ROW,"Crossing, no Traffic Control",Unknown,,,,Yes,,Yes,,,,,,,,,,,119,Wexford/Maryvale (119),35
-8854963.44170143,5418277.96305863,3603374,915991,2006,2006/07/28 04:00:00+00,1626,16,ISLINGTON AVE,DIXON RD,,Major Arterial,Etobicoke York,2,23,43.694445,-79.54549,Mid-Block,,No Control,Clear,Daylight,Dry,Fatal,Pedestrian Collisions,Pedestrian,20 to 24,Fatal,,South,Other,,,,Pedestrian hit on sidewalk or shoulder,On Sidewalk or Shoulder,Normal,,,,Yes,,Yes,,,,,Yes,,,,,,6,Kingsview Village-The Westway (6),36
-8846736.93133181,5409075.6452,3450204,916024,2006,2006/07/30 04:00:00+00,2155,21,F G GARDINER XY Ramp W,GARDINER W S KINGSWAY RAMP,,,Toronto and East York,4,11,43.634645,-79.47159,Exit Ramp Westbound,,No Control,Clear,Dark,Dry,Fatal,SMV Other,Motorcycle Driver,20 to 24,Fatal,,West,Motorcycle,Going Ahead,Lost control,Unknown,,,,,,,,,,Yes,,,,,,,,,,85,South Parkdale (85),37
-8818484.04456848,5434859.12105871,3451850,916630,2006,2006/08/01 04:00:00+00,2345,23,NEILSON RD,WICKSON TRL,,Minor Arterial,Scarborough,,42,43.802045,-79.21779,Intersection,At Intersection,Traffic Signal,Clear,Dark,Dry,Fatal,Pedestrian Collisions,Pedestrian,30 to 34,Fatal,,East,Other,,,,Vehicle is going straight thru inter.while ped cross without ROW,Crossing without right of way,Had Been Drinking,,,,Yes,,Yes,,,,,,,,,,,132,Malvern (132),38
-8849230.48792558,5414845.25750279,3603408,917154,2006,2006/08/03 04:00:00+00,130,1,JANE ST,FOXWELL ST,,Major Arterial,Etobicoke York,5,12,43.672145,-79.49399,Mid-Block,,No Control,Rain,Dark,Wet,Fatal,Pedestrian Collisions,Pedestrian,50 to 54,Fatal,,East,Other,,,,Pedestrian hit at mid-block,Running onto Roadway,Unknown,,,,Yes,,Yes,,,,,,,,,,,111,Rockcliffe-Smythe (111),39
-8818584.23211019,5429893.97517089,3459042,919332,2006,2006/08/18 04:00:00+00,1639,16,SCARBOROUGH GOLF CLUB RD,BRIMORTON DR,,Minor Arterial,Scarborough,24,43,43.769845,-79.21869,Intersection,,Traffic Signal,Clear,Daylight,Dry,Fatal,Approaching,Passenger,65 to 69,Fatal,,,Other,,,,,,,,,,,,Yes,,,,,Yes,,,,,,135,Morningside (135),40
-8821378.35132911,5431481.91416166,3459026,919330,2006,2006/08/18 04:00:00+00,2100,21,BELLAMY RD N,PROGRESS AVE,,Minor Arterial,Scarborough,24,43,43.780145,-79.24379,Intersection,At Intersection,Traffic Signal,Clear,Dark,Dry,Fatal,Turning Movement,Passenger,70 to 74,Fatal,,,Other,,,,,,,,,,,,Yes,,,,,Yes,,,,,,137,Woburn (137),41
-8829081.660092,5428121.35664981,3603481,919641,2006,2006/08/19 04:00:00+00,1335,13,ELLESMERE RD,POLLARD DR,,Major Arterial,Scarborough,21,41,43.758345,-79.31299,Intersection,,No Control,Clear,Daylight,Dry,Fatal,Pedestrian Collisions,Pedestrian,5 to 9,Fatal,,South,Other,,,,Pedestrian hit at mid-block,Running onto Roadway,Medical or Physical Disability,,,,Yes,,Yes,,,,,,,,,,,119,Wexford/Maryvale (119),42
-8830996.35533364,5413475.61006801,3459516,919516,2006,2006/08/19 04:00:00+00,2345,23,QUEEN ST E,LESLIE ST,,Minor Arterial,Toronto and East York,14,55,43.663245,-79.33019,Intersection,At Intersection,Traffic Signal,Clear,Dark,Dry,Fatal,Pedestrian Collisions,Pedestrian,60 to 64,Fatal,,North,Other,,,,Vehicle turns right while ped crosses with ROW at inter.,Crossing with right of way,Had Been Drinking,,,,Yes,,Yes,,,,,,,Yes,,,,70,South Riverdale (70),43
-8834369.33590468,5427643.5786532,3462225,920502,2006,2006/08/25 04:00:00+00,2330,23,LESLIE ST,COLDWATER RD,,Major Arterial,North York,,33,43.755245,-79.36049,Mid-Block,,No Control,Rain,Dark,Wet,Fatal,Turning Movement,Driver,60 to 64,Fatal,,West,"Automobile, Station Wagon",Turning Left,Failed to Yield Right of Way,Unknown,,,,,,,,,Yes,,,,,,,Yes,,,,40,St.Andrew-Windfields (40),44
-8839200.60180511,5409583.22655009,3462733,920690,2006,2006/08/27 04:00:00+00,1928,19,F G GARDINER XY  W,BATHURST ST,,,Toronto and East York,10,14,43.637945,-79.40389,Mid-Block,,No Control,Clear,Daylight,Dry,Fatal,SMV Other,Motorcycle Driver,30 to 34,Fatal,,West,Motorcycle,Going Ahead,Lost control,Unknown,,,,,,,,,,Yes,,,,,,,,,,82,Niagara (82),45
-8816480.2937342,5434843.69720967,3468891,922948,2006,2006/09/09 04:00:00+00,308,3,MORNINGSIDE AVE,SHEPPARD AVE E,,Major Arterial,Scarborough,25,42,43.801945,-79.19979,Intersection,,Traffic Signal,Clear,Dark,Wet,Fatal,Angle,Passenger,25 to 29,Fatal,,,Other,,,,,,,,,,,,Yes,,Yes,,,Yes,,Yes,Yes,,,131,Rouge (131),46
-8833590.09946913,5421588.73106373,3470109,923394,2006,2006/09/11 04:00:00+00,1629,16,EGLINTON AVE E,LESLIE ST,,Major Arterial,North York,15,53,43.715945,-79.35349,Mid-Block,At Intersection,No Control,Clear,Daylight,Dry,Fatal,Cyclist Collisions,Cyclist,45 to 49,Fatal,,West,Bicycle,Going Ahead,,,,,,Cyclist and Driver travelling in same direction. One vehicle sideswipes the other.,Driving Properly,Normal,,Yes,,,Yes,,,,,Yes,,,,55,Thorncliffe Park (55),47
-8821979.47657939,5425100.98309127,3603718,925837,2006,2006/09/22 04:00:00+00,2158,21,BRIMLEY RD,WETHERBY DR,,Major Arterial,Scarborough,21,43,43.738745,-79.24919,Intersection,At Intersection,No Control,Rain,Dark,Wet,Fatal,SMV Other,Driver,40 to 44,Fatal,,South,"Automobile, Station Wagon",Turning Left,Lost control,Inattentive,,,,,,,,,Yes,,,,,,Yes,Yes,,,,138,Eglinton East (138),48
-8815456.1544189,5438361.003141,3490523,930890,2006,2006/10/18 04:00:00+00,2136,21,OLD FINCH AVE,REESOR RD,,Collector,Scarborough,25,42,43.824745,-79.19059,Mid-Block,,No Control,Clear,Dark,Dry,Fatal,SMV Other,Motorcycle Driver,20 to 24,Fatal,,West,Motorcycle,Going Ahead,Lost control,Inattentive,,,,,,,,,,Yes,,,,,,,,,,131,Rouge (131),49
-8861186.20123678,5423822.24535302,3551773,933173,2006,2006/10/29 04:00:00+00,35,3,HIGHWAY 27  N,HUMBER COLLEGE BLVD,,Major Arterial,Etobicoke York,1,23,43.730445,-79.60139,Intersection,At Intersection,Traffic Signal,Rain,Dark,Wet,Fatal,Pedestrian Collisions,Pedestrian,15 to 19,Fatal,,East,Other,,,,Vehicle is going straight thru inter.while ped cross without ROW,Crossing without right of way,Unknown,,,,Yes,,Yes,,,,,,,,,,,1,West Humber-Clairville (1),50
-8828981.47255028,5436201.09476688,3505146,936341,2006,2006/11/04 05:00:00+00,1805,18,BIRCHMOUNT RD,IVY BUSH AVE,,Major Arterial,Scarborough,22,42,43.810745,-79.31209,Intersection,At Intersection,Traffic Signal,Clear,Dark,Dry,Fatal,Turning Movement,Driver,75 to 79,Fatal,,South,"Automobile, Station Wagon",Turning Left,Failed to Yield Right of Way,Unknown,,,,,,,,,Yes,,,,,,,Yes,,,,116,Steeles (116),51
-8847516.16776736,5408322.01521984,3604962,935742,2006,2006/11/11 05:00:00+00,638,6,F G GARDINER XY  W,GARDINER W LAKE SHORE W RAMP,,,Etobicoke York,3,22,43.629745,-79.47859,Mid-Block,,No Control,Clear,Dark,Wet,Fatal,Sideswipe,Driver,45 to 49,Fatal,,West,"Automobile, Station Wagon",Going Ahead,Lost control,Unknown,,,,,,,,,Yes,,,,,Yes,,,,,,17,Mimico (includes Humber Bay Shores) (17),52
-8842562.45042706,5424885.27996164,3533967,939458,2006,2006/11/30 05:00:00+00,720,7,WILSON AVE,BATHURST ST,,Major Arterial,North York,6,32,43.737345,-79.43409,Intersection,,No Control,Rain,Dark,Wet,Fatal,Pedestrian Collisions,Pedestrian,65 to 69,Fatal,,South,Other,,,,Pedestrian hit at mid-block,"Crossing, no Traffic Control",Medical or Physical Disability,,,,Yes,,Yes,,,,,,,,,,,38,Lansing-Westgate (38),53
-8824539.82486763,5433902.89123284,3552006,940637,2006,2006/12/07 05:00:00+00,1545,15,BRIMLEY RD,HUNTINGWOOD DR,,Major Arterial,Scarborough,23,42,43.795845,-79.27219,Mid-Block,,No Control,Clear,Daylight,Dry,Fatal,Pedestrian Collisions,Pedestrian,80 to 84,Fatal,,East,Other,,,,Pedestrian hit at mid-block,"Crossing, no Traffic Control",Unknown,,,,Yes,,Yes,,,,,,,,,,,129,Agincourt North (129),54
-8849631.23809244,5416138.14478252,3516851,940775,2006,2006/12/08 05:00:00+00,1719,17,JANE ST,BEXLEY CRES,,Major Arterial,Etobicoke York,5,12,43.680545,-79.49759,Intersection,,No Control,Clear,Dark,Dry,Fatal,Pedestrian Collisions,Pedestrian,55 to 59,Fatal,,East,Other,,,,Vehicle is going straight thru inter.while ped cross without ROW,"Crossing, no Traffic Control",Unknown,,,,Yes,,Yes,,,,,Yes,,,,,,111,Rockcliffe-Smythe (111),55
-8828035.25687854,5422559.08810058,3609254,943986,2006,2006/12/23 05:00:00+00,1809,18,O CONNOR DR,LEAFY WOODWAY,,Major Arterial,North York,16,54,43.722245,-79.30359,Intersection,,No Control,Rain,Dark,Wet,Fatal,Pedestrian Collisions,Pedestrian,65 to 69,Fatal,,North,Other,,,,Pedestrian hit at mid-block,"Crossing, no Traffic Control",Inattentive,,,,Yes,,Yes,,,,,,,,,,,43,Victoria Village (43),56
-8819664.03117089,5429539.42420425,3552178,944038,2006,2006/12/24 05:00:00+00,850,8,MARKHAM RD,PAINTED POST DR,,Major Arterial,Scarborough,24,43,43.767545,-79.22839,Intersection,At Intersection,Traffic Signal,Clear,Daylight,Dry,Fatal,Angle,Driver,40 to 44,Fatal,,West,"Automobile, Station Wagon",Going Ahead,Driving Properly,Unknown,,,,,,,,,Yes,,,,,,,Yes,Yes,,,137,Woburn (137),57
-8831274.65406063,5433918.3135073,4119061,945089,2007,2007/01/02 05:00:00+00,1750,17,VICTORIA PARK AVE,HARE GT,,Major Arterial,North York,,42,43.795945,-79.33269,Intersection,At Intersection,No Control,Clear,Dark,Dry,Fatal,Pedestrian Collisions,Pedestrian,40 to 44,Fatal,,West,Other,,,,Vehicle is going straight thru inter.while ped cross without ROW,"Crossing, no Traffic Control",Unknown,,,,Yes,,Yes,,,,,,,,,,,117,L'Amoreaux (117),58
-8845835.24345639,5418893.82999886,4129903,951370,2007,2007/02/05 05:00:00+00,523,5,CALEDONIA RD,CASTLEFIELD AVE,,Minor Arterial,North York,8,13,43.698445,-79.46349,Intersection,At Intersection,Traffic Signal,Clear,Dark,Dry,Fatal,Angle,Driver,45 to 49,Fatal,,West,"Automobile, Station Wagon",Going Ahead,Driving Properly,Normal,,,,,,,,,Yes,,,,,Yes,,Yes,Yes,,,108,Briar Hill-Belgravia (108),59
-8853416.10077941,5408768.03370487,4405461,952529,2007,2007/02/11 05:00:00+00,202,2,KIPLING AVE,ADVANCE RD,,Major Arterial,Etobicoke York,3,22,43.632645,-79.53159,Mid-Block,At Intersection,No Control,Clear,Dark,Dry,Fatal,Pedestrian Collisions,Pedestrian,15 to 19,Fatal,,West,Other,,,,Pedestrian hit at mid-block,Walking on Roadway with Traffic,Unknown,,,,Yes,,Yes,,,,,,Yes,Yes,,Yes,,14,Islington-City Centre West (14),60
-8830105.7994073,5435476.09619155,4133908,953178,2007,2007/02/14 05:00:00+00,700,7,MCNICOLL AVE,WARDEN AVE,,Minor Arterial,Scarborough,22,42,43.806045,-79.32219,Mid-Block,,No Control,Snow,Dark,Packed Snow,Fatal,Pedestrian Collisions,Pedestrian,30 to 34,Fatal,,North,Other,,,,Pedestrian hit at mid-block,Walking on Roadway with Traffic,Inattentive,,,,Yes,,Yes,,,,,,Yes,Yes,,,,116,Steeles (116),61
-8838521.55291127,5411798.45328412,4136608,954405,2007,2007/02/19 05:00:00+00,1358,13,SPADINA AVE,WILLISON SQ,,Major Arterial,Toronto and East York,10,52,43.652345,-79.39779,Intersection,,No Control,Clear,Daylight,Wet,Fatal,Pedestrian Collisions,Pedestrian,55 to 59,Fatal,,East,Other,,,,Pedestrian hit at mid-block,"Crossing, no Traffic Control",Normal,,,,Yes,,Yes,,,,,,,,,,,78,Kensington-Chinatown (78),62
-8845178.45846071,5409737.044584,4142164,957092,2007,2007/03/06 05:00:00+00,145,1,F G GARDINER XY  W,PARKSIDE DR,,,Toronto and East York,4,11,43.638945,-79.45759,Mid-Block,,No Control,Clear,Dark,Dry,Fatal,Rear End,Driver,30 to 34,Fatal,,West,"Automobile, Station Wagon",Changing Lanes,Improper Lane Change,Unknown,,,,,,,,,Yes,,Yes,,,,,,,,,85,South Parkdale (85),63
-8860685.26352821,5428275.48386454,4273443,957566,2007,2007/03/07 05:00:00+00,1027,10,STEELES AVE W,GIHON SPRING DR,,Major Arterial,Etobicoke York,1,23,43.759345,-79.59689,Intersection,,No Control,Clear,Daylight,Other,Fatal,Approaching,Driver,60 to 64,Fatal,,West,"Automobile, Station Wagon",Going Ahead,Driving Properly,Normal,,,,,,,,,Yes,,,,,,,Yes,,,,2,Mount Olive-Silverstone-Jamestown (2),64
-8833233.87709859,5418093.21098719,4144071,957966,2007,2007/03/09 05:00:00+00,1724,17,O CONNOR DR,PAPE AVE,,Major Arterial,Toronto and East York,14,54,43.693245,-79.35029,Intersection,At Intersection,Traffic Signal,Clear,Dusk,Dry,Fatal,Pedestrian Collisions,Pedestrian,70 to 74,Fatal,,West,Other,,,,Pedestrian involved in a collision with transit vehicle anywhere along roadway,Crossing with right of way,Normal,,,,Yes,,Yes,,,,,,,Yes,,,,58,Old East York (58),65
-8837764.58037387,5416122.75220274,4153261,961870,2007,2007/03/30 04:00:00+00,2120,21,YONGE ST,SCRIVENER SQ,,Major Arterial,Toronto and East York,11,53,43.680445,-79.39099,Intersection,At Intersection,No Control,Clear,Dark,Dry,Fatal,Pedestrian Collisions,Pedestrian,80 to 84,Fatal,,East,Other,,,,Pedestrian hit at mid-block,"Crossing, no Traffic Control",Normal,,,,Yes,,Yes,,,,,,,Yes,,,,98,Rosedale-Moore Park (98),66
-8826109.42968782,5427011.7167353,4153882,962132,2007,2007/03/31 04:00:00+00,643,6,BIRCHMOUNT RD,MERRYFIELD DR,,Major Arterial,Scarborough,21,41,43.751145,-79.28629,Mid-Block,,No Control,Clear,Dawn,Dry,Fatal,Approaching,Driver,30 to 34,Fatal,,North,"Automobile, Station Wagon",Going Ahead,Improper Passing,Unknown,,,,,,,,,Yes,,,,,,,Yes,,,,126,Dorset Park (126),67
-8842829.61720497,5409998.54111703,4154417,962372,2007,2007/04/02 04:00:00+00,2108,21,QUEEN ST W,LANSDOWNE AVE,,Major Arterial,Toronto and East York,4,11,43.640645,-79.43649,Intersection,,No Control,Clear,Dark,Dry,Fatal,Pedestrian Collisions,Pedestrian,60 to 64,Fatal,,South,Other,,,,Pedestrian hit at mid-block,"Crossing, no Traffic Control",Unknown,,,,Yes,,,,,,,Yes,,,,,,86,Roncesvalles (86),68
-8859193.58235158,5428429.61365528,4157517,963778,2007,2007/04/11 04:00:00+00,2034,20,STEELES AVE W,MARKBROOK LANE,,Major Arterial,Etobicoke York,1,23,43.760345,-79.58349,Mid-Block,,No Control,Rain,Dark,Wet,Fatal,Approaching,Driver,45 to 49,Fatal,,East,"Automobile, Station Wagon",Going Ahead,Driving Properly,Normal,,,,,,,,,Yes,,,,,,,,,Yes,,2,Mount Olive-Silverstone-Jamestown (2),69
-8854707.40687261,5404155.08910796,4159890,964835,2007,2007/04/17 04:00:00+00,1603,16,149 SHELDON AVE,,,Local,Etobicoke York,3,22,43.602645,-79.54319,Mid-Block,,No Control,Clear,Daylight,Dry,Fatal,SMV Other,Driver,90 to 94,Fatal,,East,"Automobile, Station Wagon",Going Ahead,Lost control,Had Been Drinking,,,,,,,,,Yes,,,,,Yes,,,,,,20,Alderwood (20),70
-8828513.59673048,5431266.21590997,4161166,965369,2007,2007/04/22 04:00:00+00,4,4,WARDEN AVE,SHEPPARD AVE E,,Major Arterial,Scarborough,22,42,43.778746,-79.307887,Intersection,At Intersection,Traffic Signal,Clear,Dark,Dry,Fatal,Turning Movement,Motorcycle Driver,20 to 24,Fatal,,North,Motorcycle,Going Ahead,Exceeding Speed Limit,Normal,,,,,,,,,Yes,Yes,,,,,Yes,Yes,,,,118,Tam O'Shanter-Sullivan (118),71
-8827333.94408654,5438546.16171197,4173249,970644,2007,2007/05/20 04:00:00+00,440,4,STEELES AVE E,MIDLAND AVE,,Major Arterial,Scarborough,,42,43.825945,-79.29729,Intersection,At Intersection,Traffic Signal,Clear,Dark,Dry,Fatal,Pedestrian Collisions,Pedestrian,55 to 59,Fatal,,South,Other,,,,Vehicle is going straight thru inter.while ped cross with ROW,Crossing with right of way,Unknown,,,,Yes,,Yes,,,,,,,Yes,,,,130,Milliken (130),72
-8823326.44241799,5429924.80633406,4178251,972841,2007,2007/06/01 04:00:00+00,1910,19,ELLESMERE RD,BRIMLEY RD,,Major Arterial,Scarborough,21,43,43.770045,-79.26129,Intersection,At Intersection,Traffic Signal,Clear,Daylight,Dry,Fatal,Turning Movement,Motorcycle Driver,35 to 39,Fatal,,West,Motorcycle,Going Ahead,Exceeding Speed Limit,Normal,,,,,,,,,Yes,Yes,,,,Yes,Yes,Yes,,,,127,Bendale (127),73
-8835148.34970125,5415168.15453642,4178259,972843,2007,2007/06/02 04:00:00+00,2,2,BLOOR ST E,DRUMSNAB RD,,Major Arterial,Toronto and East York,11,51,43.674243,-79.367488,Intersection,At Intersection,No Control,Clear,Dark,Dry,Fatal,SMV Other,Motorcycle Driver,25 to 29,Fatal,,West,Motorcycle,Slowing or Stopping,Lost control,Unknown,,,,,,,,,,Yes,,,,,Yes,Yes,,,,71,Cabbagetown-South St.James Town (71),74
-8857534.92193876,5426256.62146313,4405642,972932,2007,2007/06/02 04:00:00+00,226,2,ISLINGTON AVE,FINCH AVE W,,Major Arterial,Etobicoke York,,31,43.746245,-79.56859,Intersection,At Intersection,Traffic Signal,Clear,Dark,Dry,Fatal,Angle,Driver,15 to 19,Fatal,,North,"Automobile, Station Wagon",Going Ahead,Disobeyed Traffic Control,Unknown,,,,,,,,,Yes,,,,,Yes,,Yes,Yes,,,21,Humber Summit (21),75
-8857534.92193876,5426256.62146313,4405643,972932,2007,2007/06/02 04:00:00+00,226,2,ISLINGTON AVE,FINCH AVE W,,Major Arterial,Etobicoke York,,31,43.746245,-79.56859,Intersection,At Intersection,Traffic Signal,Clear,Dark,Dry,Fatal,Angle,Passenger,15 to 19,Fatal,,,Other,,,,,,,,,,,,Yes,,,,,Yes,,Yes,Yes,,,21,Humber Summit (21),76
-8857534.92193876,5426256.62146313,4405644,972932,2007,2007/06/02 04:00:00+00,226,2,ISLINGTON AVE,FINCH AVE W,,Major Arterial,Etobicoke York,,31,43.746245,-79.56859,Intersection,At Intersection,Traffic Signal,Clear,Dark,Dry,Fatal,Angle,Passenger,15 to 19,Fatal,,,Other,,,,,,,,,,,,Yes,,,,,Yes,,Yes,Yes,,,21,Humber Summit (21),77
-8837274.77461438,5428445.02677603,4180913,974080,2007,2007/06/08 04:00:00+00,809,8,BAYVIEW AVE,FIFESHIRE RD,,Major Arterial,North York,15,33,43.760445,-79.38659,Intersection,At Intersection,No Control,Clear,Daylight,Dry,Fatal,Cyclist Collisions,Cyclist,45 to 49,Fatal,,South,Bicycle,Going Ahead,,,,,,Cyclist and Driver travelling in same direction. One vehicle sideswipes the other.,Other,Unknown,,Yes,Yes,,Yes,,,,,,,,,40,St.Andrew-Windfields (40),78
-8840503.03984739,5412198.48138235,4273729,975035,2007,2007/06/14 04:00:00+00,1124,11,COLLEGE ST,GRACE ST,,Major Arterial,Toronto and East York,11,14,43.654945,-79.41559,Intersection,At Intersection,Traffic Signal,Clear,Daylight,Dry,Fatal,Pedestrian Collisions,Pedestrian,70 to 74,Fatal,,East,Other,,,,Vehicle turns left while ped crosses with ROW at inter.,Crossing with right of way,Other,,,,Yes,,Yes,,,,,,,,,,,80,Palmerston-Little Italy (80),79
-8855853.99762778,5421650.33800109,4187640,977223,2007,2007/06/30 04:00:00+00,212,2,BURRARD RD,CAULFIELD RD,,Local,Etobicoke York,1,23,43.716345,-79.55349,Intersection,At Intersection,No Control,Clear,Dark,Dry,Fatal,SMV Other,Driver,15 to 19,Fatal,,North,"Automobile, Station Wagon",Going Ahead,Exceeding Speed Limit,Had Been Drinking,,,,,,,,,Yes,,,,,,Yes,Yes,,,,5,Elms-Old Rexdale (5),80
-8825530.56833569,5429261.95904427,4190043,978249,2007,2007/07/01 04:00:00+00,805,8,ELLESMERE RD,KENNEDY RD,,Major Arterial,Scarborough,21,41,43.765745,-79.28109,Intersection,At Intersection,Traffic Signal,Clear,Daylight,Dry,Fatal,Angle,Driver,60 to 64,Fatal,,West,"Automobile, Station Wagon",Going Ahead,Disobeyed Traffic Control,Normal,,,,,,,,,Yes,,,,,,,Yes,Yes,,,126,Dorset Park (126),81
-8813931.07739504,5435028.78510208,4189764,978116,2007,2007/07/05 04:00:00+00,530,5,BRAYMORE BLVD,BLACKTOFT DR,,Collector,Scarborough,25,42,43.803145,-79.17689,Intersection,,No Control,"Fog, Mist, Smoke, Dust",Dark,Dry,Fatal,SMV Other,Driver,15 to 19,Fatal,,North,"Automobile, Station Wagon",Going Ahead,Lost control,Had Been Drinking,,,,,,,,,Yes,,,,,Yes,,,,,,131,Rouge (131),82
-8820587.98294447,5424561.73472315,4405787,979400,2007,2007/07/11 04:00:00+00,2013,20,MCCOWAN RD,BRIDLEGROVE DR,,Minor Arterial,Scarborough,20,43,43.735245,-79.23669,Mid-Block,,No Control,Clear,Daylight,Dry,Fatal,Pedestrian Collisions,Pedestrian,35 to 39,Fatal,,South,Other,,,,Pedestrian hit on sidewalk or shoulder,On Sidewalk or Shoulder,Normal,,,,Yes,,Yes,,,,,,,,,Yes,,123,Cliffcrest (123),83
-8827044.51341048,5426117.93721406,4405840,982207,2007,2007/07/18 04:00:00+00,1607,16,LAWRENCE AVE E,WARDEN AVE,,Major Arterial,Scarborough,21,41,43.745345,-79.29469,Intersection,At Intersection,Traffic Signal,Clear,Daylight,Dry,Fatal,Pedestrian Collisions,Pedestrian,35 to 39,Fatal,,,Other,,,,Pedestrian hit on sidewalk or shoulder,On Sidewalk or Shoulder,Normal,,,,Yes,,Yes,,Yes,,,Yes,,,,,,119,Wexford/Maryvale (119),84
-8821634.38615793,5427658.9904603,4209597,986718,2007,2007/08/05 04:00:00+00,1055,10,LAWRENCE AVE E,MCCOWAN RD,,Major Arterial,Scarborough,21,43,43.755345,-79.24609,Mid-Block,,No Control,Clear,Daylight,Dry,Fatal,Pedestrian Collisions,Pedestrian,75 to 79,Fatal,,North,Other,,,,Pedestrian hit at mid-block,"Crossing, no Traffic Control",Normal,,,,Yes,,Yes,,,,,,,,,,,127,Bendale (127),85
-8843085.65203379,5409060.26438211,4273854,984625,2007,2007/08/13 04:00:00+00,51,5,F G GARDINER XY  E,JAMESON AVE,,Major Arterial,Toronto and East York,4,14,43.634545,-79.43879,Mid-Block,,No Control,Clear,Dark,Dry,Fatal,Rear End,Passenger,0 to 4,Fatal,,,Other,,,,,,,,,,,,Yes,,,,,Yes,,,,,,85,South Parkdale (85),86
-8843085.65203379,5409060.26438211,4273855,984625,2007,2007/08/13 04:00:00+00,51,5,F G GARDINER XY  E,JAMESON AVE,,Major Arterial,Toronto and East York,4,14,43.634545,-79.43879,Mid-Block,,No Control,Clear,Dark,Dry,Fatal,Rear End,Passenger,60 to 64,Fatal,,,Other,,,,,,,,,,,,Yes,,,,,Yes,,,,,,85,South Parkdale (85),87
-8828024.12492946,5431790.28354414,4292894,987119,2007,2007/08/28 04:00:00+00,1244,12,BAY MILLS BLVD,EAGLESTONE RD,,Collector,Scarborough,22,42,43.782145,-79.30349,Intersection,At Intersection,Pedestrian Crossover,Clear,Daylight,Dry,Fatal,Cyclist Collisions,Cyclist,5 to 9,Fatal,,South,Bicycle,Going Ahead,,,,,,Cyclist struck at PXO(cyclist either travel in same dir. as veh. or ride across xwalk),Disobeyed Traffic Control,Normal,,Yes,,,,,,,,,,,,118,Tam O'Shanter-Sullivan (118),88
-8842529.05457983,5408783.41403649,4211231,987376,2007,2007/08/30 04:00:00+00,2252,22,F G GARDINER XY  W,JAMESON AVE,,,Toronto and East York,4,14,43.632745,-79.43379,Mid-Block,,No Control,Clear,Dark,Dry,Fatal,SMV Other,Motorcycle Driver,25 to 29,Fatal,,West,Motorcycle,Going Ahead,Lost control,Normal,,,,,,,,,,Yes,,,,,,,,,,85,South Parkdale (85),89
-8848985.58504584,5425855.9837657,4273923,987500,2007,2007/09/02 04:00:00+00,48,4,SHEPPARD AVE W,SENTINEL RD,,Major Arterial,North York,6,31,43.743645,-79.49179,Intersection,,Traffic Signal,Clear,Dark,Dry,Fatal,SMV Other,Driver,40 to 44,Fatal,,East,"Automobile, Station Wagon",Going Ahead,Lost control,Unknown,,,,,,,,,Yes,,,,,,,,,,,26,Downsview-Roding-CFB (26),90
-8828358.08340184,5427011.7167353,4273926,987504,2007,2007/09/02 04:00:00+00,245,2,1 MURRAY GLEN DR,,,Local,Scarborough,21,41,43.751145,-79.30649,Mid-Block,,No Control,Clear,Dark,Dry,Fatal,Cyclist Collisions,Cyclist,40 to 44,Fatal,,West,Bicycle,Going Ahead,,,,,,Insufficient information (to determine cyclist crash type).,Other,Unknown,,Yes,,,Yes,,,,,,,,,119,Wexford/Maryvale (119),91
-8852603.46849662,5427751.46184374,4217302,990014,2007,2007/09/13 04:00:00+00,1005,10,OAKDALE RD,FINCH AVE W,,Major Arterial,Etobicoke York,7,31,43.755945,-79.52429,Intersection,At Intersection,Traffic Signal,Clear,Daylight,Dry,Fatal,Pedestrian Collisions,Pedestrian,65 to 69,Fatal,,South,Other,,,,Vehicle turns left while ped crosses without ROW at inter.,Crossing without right of way,Unknown,,,,Yes,,,,Yes,,,,,,,,,24,Black Creek (24),92
-8827523.18722089,5421588.73106373,4219065,990803,2007,2007/09/18 04:00:00+00,18,1,VICTORIA PARK AVE,HOLLAND AVE,,Major Arterial,Toronto and East York,,41,43.715945,-79.29899,Intersection,At Intersection,No Control,Clear,Dark,Dry,Fatal,Approaching,Driver,15 to 19,Fatal,,South,"Automobile, Station Wagon",Going Ahead,Lost control,Unknown,,,,,,,,,Yes,,,,,,Yes,Yes,,,,120,Clairlea-Birchmount (120),93
-8839968.70629158,5420587.67596305,4292978,991727,2007,2007/09/20 04:00:00+00,2005,20,AVENUE RD,CASTLEFIELD AVE,,Major Arterial,North York,8,53,43.709445,-79.41079,Intersection,At Intersection,Stop Sign,Clear,Dark,Dry,Fatal,Angle,Driver,20 to 24,Fatal,,North,"Automobile, Station Wagon",Going Ahead,Exceeding Speed Limit,Normal,,,,,,,,,Yes,,Yes,,,Yes,Yes,Yes,,,,100,Yonge-Eglinton (100),94
-8839434.37273577,5414845.25750279,4406009,991482,2007,2007/09/20 04:00:00+00,2155,21,SPADINA RD,BERNARD AVE,,Minor Arterial,Toronto and East York,11,53,43.672145,-79.40599,Intersection,At Intersection,Traffic Signal,Clear,Dark,Dry,Fatal,Turning Movement,Passenger,20 to 24,Fatal,,,Other,,,,,,,,,,,,Yes,,,,,Yes,Yes,Yes,,,,95,Annex (95),95
-8861241.86098218,5423991.70643213,4226029,993818,2007,2007/09/28 04:00:00+00,1932,19,HIGHWAY 27  N,HUMBER COLLEGE BLVD,,Major Arterial,Etobicoke York,1,23,43.731545,-79.60189,Mid-Block,,No Control,Clear,Dark,Dry,Fatal,Pedestrian Collisions,Pedestrian,80 to 84,Fatal,,West,Other,,,,Pedestrian hit at mid-block,"Crossing, no Traffic Control",Unknown,,,,Yes,,Yes,,,,,,,,,,,1,West Humber-Clairville (1),96
-8839167.20595787,5423791.43458211,4226034,993820,2007,2007/10/01 04:00:00+00,605,6,YONGE ST,GLENFOREST RD,,Major Arterial,North York,,32,43.730245,-79.40359,Intersection,At Intersection,No Control,Clear,Dark,Dry,Fatal,Pedestrian Collisions,Pedestrian,70 to 74,Fatal,,North,Other,,,,Vehicle turns left while ped crosses with ROW at inter.,Crossing with right of way,Unknown,,,,Yes,,,,Yes,,,,,Yes,,,,105,Lawrence Park North (105),97
-8853527.4202702,5416522.96761538,4293077,995785,2007,2007/10/10 04:00:00+00,1503,15,LA ROSE AVE,WATLING ST,,Local,Etobicoke York,2,23,43.683045,-79.53259,Intersection,,No Control,Clear,Daylight,Wet,Fatal,SMV Other,Driver,55 to 59,Fatal,,East,"Automobile, Station Wagon",Going Ahead,Exceeding Speed Limit,Unknown,,,,,,,,,Yes,,,,,,Yes,Yes,,,,7,Willowridge-Martingrove-Richview (7),98
-8829693.91729136,5433933.73580756,4274118,996032,2007,2007/10/10 04:00:00+00,1946,19,FINCH AVE E,BRIDLETOWNE CRCL,,Major Arterial,Scarborough,22,42,43.796045,-79.31849,Mid-Block,,No Control,Rain,Dark,Wet,Fatal,Pedestrian Collisions,Pedestrian,50 to 54,Fatal,,South,Other,,,,Pedestrian hit at mid-block,"Crossing, no Traffic Control",Inattentive,,,,Yes,,Yes,,,,,,,,,,,117,L'Amoreaux (117),99
-8856432.85897991,5421634.93622819,4406116,997564,2007,2007/10/19 04:00:00+00,1010,10,BERGAMOT AVE,ISLINGTON AVE,,Collector,Etobicoke York,1,23,43.716245,-79.55869,Mid-Block,,No Control,Rain,Daylight,Wet,Fatal,Approaching,Passenger,80 to 84,Fatal,,,Other,,,,,,,,,,,,Yes,,,Yes,,Yes,,,,Yes,,4,Rexdale-Kipling (4),100
-8856432.85897991,5421634.93622819,4406117,997564,2007,2007/10/19 04:00:00+00,1010,10,BERGAMOT AVE,ISLINGTON AVE,,Collector,Etobicoke York,1,23,43.716245,-79.55869,Mid-Block,,No Control,Rain,Daylight,Wet,Fatal,Approaching,Passenger,80 to 84,Fatal,,,Other,,,,,,,,,,,,Yes,,,Yes,,Yes,,,,Yes,,4,Rexdale-Kipling (4),101
-8827356.2079847,5427150.41442372,4293249,1000871,2007,2007/11/06 05:00:00+00,710,7,WARDEN AVE,MANHATTAN DR,,Major Arterial,Scarborough,21,41,43.752045,-79.29749,Intersection,At Intersection,Traffic Signal,Clear,Daylight,Dry,Fatal,Pedestrian Collisions,Pedestrian,45 to 49,Fatal,,West,Other,,,,Vehicle turns left while ped crosses with ROW at inter.,Crossing with right of way,Normal,,,,Yes,,Yes,,,,,,,Yes,,,,119,Wexford/Maryvale (119),102
-8851801.96816291,5427581.93168235,4274441,1001761,2007,2007/11/09 05:00:00+00,1810,18,JANE ST,FIRGROVE CRES,,Major Arterial,Etobicoke York,7,31,43.754845,-79.51709,Intersection,At Intersection,Traffic Signal,Rain,Dark,Wet,Fatal,Pedestrian Collisions,Pedestrian,80 to 84,Fatal,,West,Other,,,,Vehicle turns left while ped crosses with ROW at inter.,Crossing with right of way,Unknown,,,,Yes,,Yes,,,,,,,Yes,,,,25,Glenfield-Jane Heights (25),103
-8831508.42499129,5420818.67904211,4250203,1004342,2007,2007/11/23 05:00:00+00,950,9,DON MILLS RD,OVERLEA BLVD,,Major Arterial,North York,16,54,43.710945,-79.33479,Mid-Block,,No Control,Clear,Daylight,Wet,Fatal,Pedestrian Collisions,Pedestrian,75 to 79,Fatal,,West,Other,,,,Pedestrian involved in a collision with transit vehicle anywhere along roadway,"Crossing, no Traffic Control",Unknown,,,,Yes,,,,,Yes,,,,,,,,44,Flemingdon Park (44),104
-8821244.76794015,5422312.63855228,4274636,1004306,2007,2007/11/23 05:00:00+00,1947,19,ST CLAIR AVE E,BRIMLEY RD,,Minor Arterial,Scarborough,20,41,43.720645,-79.24259,Mid-Block,,No Control,Clear,Dark,Other,Fatal,SMV Unattended Vehicle,Passenger,20 to 24,Fatal,,,Other,,,,,,,,,,,,Yes,,,,,Yes,,,,,,123,Cliffcrest (123),105
-8841215.48458846,5411813.83865996,4293565,1006875,2007,2007/12/05 05:00:00+00,1856,18,OSSINGTON AVE,CHURCHILL AVE,,Minor Arterial,Toronto and East York,,14,43.652445,-79.42199,Mid-Block,,No Control,Clear,Dark,Dry,Fatal,Pedestrian Collisions,Pedestrian,45 to 49,Fatal,,West,Other,,,,Vehicle hits the pedestrian walking or running out from between parked vehicles at mid-block,Coming From Behind Parked Vehicle,Had Been Drinking,,,,Yes,,Yes,,,,,,,,,,,81,Trinity-Bellwoods (81),106
-8817738.20398016,5428814.94940301,4293737,1008986,2007,2007/12/15 05:00:00+00,1212,12,LAWRENCE AVE E,MOSSBANK DR,,Major Arterial,Scarborough,24,43,43.762845,-79.21109,Intersection,,No Control,Snow,Daylight,Loose Snow,Fatal,Pedestrian Collisions,Pedestrian,40 to 44,Fatal,,North,Other,,,,Pedestrian hit at mid-block,Running onto Roadway,Normal,,,,Yes,,Yes,,,,,,,,,,,137,Woburn (137),107
-8835794.22538683,5432869.65762957,4294015,1011231,2007,2007/12/24 05:00:00+00,2135,21,FINCH AVE E,ALAMOSA DR,,Major Arterial,North York,17,33,43.789145,-79.37329,Intersection,,Traffic Signal,Clear,Dark,Dry,Fatal,Pedestrian Collisions,Pedestrian,75 to 79,Fatal,,North,Other,,,,Vehicle is going straight thru inter.while ped cross without ROW,Crossing without right of way,Inattentive,,,,Yes,,Yes,,,,,,,,,,,52,Bayview Village (52),108
-8821367.21938002,5424931.50163628,5307141,1012986,2008,2008/01/05 05:00:00+00,1826,18,EGLINTON AVE E,OSWEGO RD,,Major Arterial,Scarborough,,43,43.737645,-79.24369,Intersection,,No Control,Rain,Dark,Wet,Fatal,Pedestrian Collisions,Pedestrian,30 to 34,Fatal,1,North,Other,,,,Vehicle is going straight thru inter.while ped cross without ROW,"Crossing, no Traffic Control",Normal,,,,Yes,,Yes,,,,,,,,,,,138,Eglinton East (138),109
-8857134.1717719,5416723.08182604,5307145,1012988,2008,2008/01/05 05:00:00+00,1935,19,SANDWELL DR,THE WESTWAY,,Local,Etobicoke York,2,23,43.684345,-79.56499,Mid-Block,,No Control,Clear,Dark,Wet,Fatal,Pedestrian Collisions,Pedestrian,75 to 79,Fatal,2,West,Other,,,,Vehicle hits the pedestrian walking or running out from between parked vehicles at mid-block,Coming From Behind Parked Vehicle,Inattentive,,,,Yes,,Yes,,,,,,,,,,,7,Willowridge-Martingrove-Richview (7),110
-8841059.63730136,5424916.09438567,5307417,1013236,2008,2008/01/07 05:00:00+00,1702,17,AVENUE RD,CARMICHAEL AVE,,Major Arterial,North York,8,32,43.737545,-79.42059,Intersection,At Intersection,Traffic Signal,Clear,Dark,Wet,Fatal,Pedestrian Collisions,Pedestrian,70 to 74,Fatal,3,West,Other,,,,Vehicle turns left while ped crosses with ROW at inter.,Crossing with right of way,Normal,,,,Yes,,Yes,,,,,,,,,,,39,Bedford Park-Nortown (39),111
-8859382.82548593,5421403.91271902,5307617,1013495,2008,2008/01/08 05:00:00+00,550,5,REXDALE BLVD,TIDEMORE AVE,,Major Arterial,Etobicoke York,1,23,43.714745,-79.58519,Intersection,,No Control,Clear,Dark,Dry,Fatal,SMV Other,Passenger,25 to 29,Fatal,4,,Other,,,,,,,,,,,,Yes,,,,,Yes,,,,,,1,West Humber-Clairville (1),112
-8846169.20192876,5416369.03655794,5313833,1017137,2008,2008/01/25 05:00:00+00,1823,18,ROGERS RD,KANE AVE,,Minor Arterial,Etobicoke York,,12,43.682045,-79.46649,Intersection,,Stop Sign,Clear,Dark,Dry,Fatal,Angle,Driver,75 to 79,Fatal,5,South,"Automobile, Station Wagon",Going Ahead,Failed to Yield Right of Way,Normal,,,,,,,,,Yes,,,,,Yes,Yes,Yes,,,,110,Keelesdale-Eglinton West (110),113
-8833100.29370964,5431882.79637049,5316444,1018347,2008,2008/01/31 05:00:00+00,1440,14,DON MILLS RD E,GODSTONE RD,,Major Arterial,North York,17,33,43.782745,-79.34909,Intersection,At Intersection,Traffic Signal,Clear,Daylight,Dry,Fatal,SMV Other,Passenger,80 to 84,Fatal,6,,Other,,,,,,,,,,,,Yes,,,,,Yes,,,,,,47,Don Valley Village (47),114
-8843519.79804789,5424607.95477682,5319397,1019756,2008,2008/02/08 05:00:00+00,1749,17,WILSON AVE,ALLINGHAM GDNS,,Major Arterial,North York,6,32,43.735545,-79.44269,Intersection,At Intersection,Traffic Signal,Rain,Daylight,Wet,Fatal,Pedestrian Collisions,Pedestrian,20 to 24,Fatal,7,South,Other,,,,Vehicle is going straight thru inter.while ped cross without ROW,Crossing without right of way,"Ability Impaired, Alcohol",,,,Yes,,Yes,,,,,Yes,,,,,,33,Clanton Park (33),115
-8843965.07601106,5432730.87388038,5326615,1023187,2008,2008/02/24 05:00:00+00,2132,21,BATHURST ST,CARPENTER RD,,Major Arterial,North York,,32,43.788245,-79.44669,Mid-Block,,No Control,Clear,Dark,Dry,Fatal,Approaching,Passenger,15 to 19,Fatal,8,,Other,,,,,,,,,,,,Yes,,,,,Yes,,,,Yes,,36,Newtonbrook West (36),116
-8829515.80610609,5437836.40740168,5335447,1027306,2008,2008/02/28 05:00:00+00,1025,10,BIRCHMOUNT RD,STEELES AVE E,,Major Arterial,Scarborough,22,42,43.821345,-79.31689,Intersection,At Intersection,Traffic Signal,Clear,Daylight,Dry,Fatal,Angle,Driver,60 to 64,Fatal,12,East,"Automobile, Station Wagon",Going Ahead,Driving Properly,Normal,,,,,,,,,Yes,,,,,,,Yes,Yes,,,116,Steeles (116),117
-8853861.37874258,5423206.04948192,5329697,1024623,2008,2008/02/29 05:00:00+00,1530,15,WESTON RD,STARVIEW LANE,,Major Arterial,Etobicoke York,7,31,43.726445,-79.53559,Intersection,,No Control,Snow,Daylight,Slush,Fatal,Approaching,Passenger,30 to 34,Fatal,10,,Other,,,,,,,,,,,,Yes,,Yes,,,Yes,Yes,Yes,,,,23,Pelmo Park-Humberlea (23),118
-8853861.37874258,5423206.04948192,5329698,1024623,2008,2008/02/29 05:00:00+00,1530,15,WESTON RD,STARVIEW LANE,,Major Arterial,Etobicoke York,7,31,43.726445,-79.53559,Intersection,,No Control,Snow,Daylight,Slush,Fatal,Approaching,Driver,55 to 59,Fatal,9,North,"Automobile, Station Wagon",Going Ahead,Speed too Fast For Condition,Normal,,,,,,,,,Yes,,Yes,,,Yes,Yes,Yes,,,,23,Pelmo Park-Humberlea (23),119
-8851289.89850526,5416907.80648495,5334475,1026843,2008,2008/03/09 05:00:00+00,920,9,SCARLETT RD,RICHVIEW RD,,Major Arterial,Etobicoke York,2,23,43.685545,-79.51249,Intersection,,Stop Sign,Clear,Daylight,Packed Snow,Fatal,Turning Movement,Driver,85 to 89,Fatal,11,East,"Automobile, Station Wagon",Turning Left,Failed to Yield Right of Way,Unknown,,,,,,,,,Yes,,,,,Yes,,Yes,,,,8,Humber Heights-Westmount (8),120
-8836495.53817883,5414876.03843012,5337299,1028235,2008,2008/03/15 04:00:00+00,1404,14,MOUNT PLEASANT RD,MOUNT PLEASANT BLOOR RAMP,,Major Arterial,Toronto and East York,11,53,43.672345,-79.37959,Mid-Block,At Intersection,No Control,Clear,Daylight,Dry,Fatal,Pedestrian Collisions,Pedestrian,25 to 29,Fatal,13,,Other,,,,Pedestrian hit at mid-block,"Crossing, no Traffic Control",Medical or Physical Disability,,,,Yes,,Yes,,,,,,,,,,,98,Rosedale-Moore Park (98),121
-8841293.07427355,5412106.16566862,5347974,1033112,2008,2008/04/13 04:00:00+00,244,2,OSSINGTON AVE,COLLEGE ST,,Major Arterial,Toronto and East York,,14,43.654345,-79.422687,Intersection,,Traffic Signal,Rain,Dark,Wet,Fatal,Pedestrian Collisions,Pedestrian,20 to 24,Fatal,14,East,Other,,,,Vehicle is going straight thru inter.while ped cross without ROW,Running onto Roadway,"Ability Impaired, Alcohol",,,,Yes,,Yes,,,,,Yes,,,,,,81,Trinity-Bellwoods (81),122
-8861419.97216744,5422081.59807802,5353058,1035405,2008,2008/04/28 04:00:00+00,1722,17,REXDALE Boul,QUEENS PLATE Driv,,Major Arterial,Etobicoke York,1,23,43.719145,-79.60349,Intersection,At Intersection,No Control,Clear,Daylight,Dry,Fatal,Pedestrian Collisions,Pedestrian,85 to 89,Fatal,15,,Other,Other,,,Pedestrian hit on sidewalk or shoulder,On Sidewalk or Shoulder,Normal,,,,Yes,,Yes,,,,,,,,,,Yes,1,West Humber-Clairville (1),123
-8821745.70564872,5422158.61092675,5354326,1035924,2008,2008/05/01 04:00:00+00,738,7,ST CLAIR AVE E,JEANETTE ST,,Minor Arterial,Scarborough,20,41,43.719645,-79.24709,Intersection,At Intersection,Stop Sign,Clear,Daylight,Dry,Fatal,Pedestrian Collisions,Pedestrian,50 to 54,Fatal,16,North,Other,,,,Vehicle turns left while ped crosses without ROW at inter.,"Crossing, no Traffic Control",Normal,,,,Yes,,,,Yes,,,,,,,,,123,Cliffcrest (123),124
-8830205.98694901,5434010.84769603,5354947,1036238,2008,2008/05/03 04:00:00+00,245,2,HUNTINGDALE BLVD,HEATHERSIDE DR,,Collector,Scarborough,22,42,43.796545,-79.32309,Mid-Block,,No Control,"Fog, Mist, Smoke, Dust",Dark,Wet,Fatal,SMV Other,Driver,20 to 24,Fatal,17,East,"Automobile, Station Wagon",Going Ahead,Lost control,"Ability Impaired, Alcohol",,,,,,,,,Yes,,,,,,,,,Yes,,117,L'Amoreaux (117),125
-8829794.10483308,5423129.02789129,5359689,1038340,2008,2008/05/13 04:00:00+00,2030,20,EGLINTON AVE E,CREDIT UNION DR,,Major Arterial,North York,16,33,43.725945,-79.31939,Mid-Block,,No Control,Clear,Dark,Dry,Fatal,Approaching,Passenger,20 to 24,Fatal,18,,Other,,,,,,,,,,,,Yes,,,,,Yes,Yes,Yes,,,,43,Victoria Village (43),126
-8829794.10483308,5423129.02789129,5359690,1038340,2008,2008/05/13 04:00:00+00,2030,20,EGLINTON AVE E,CREDIT UNION DR,,Major Arterial,North York,16,33,43.725945,-79.31939,Mid-Block,,No Control,Clear,Dark,Dry,Fatal,Approaching,Passenger,15 to 19,Fatal,19,,Other,,,,,,,,,,,,Yes,,,,,Yes,Yes,Yes,,,,43,Victoria Village (43),127
-8839913.04654618,5419786.91004462,5362593,1039584,2008,2008/05/22 04:00:00+00,1310,13,EGLINTON AVE W,ELMSTHORPE AVE,,Major Arterial,North York,,53,43.704245,-79.41029,Mid-Block,,No Control,Clear,Daylight,Dry,Fatal,Cyclist Collisions,Cyclist,55 to 59,Fatal,20,East,Bicycle,Going Ahead,,,,,,Cyclist struck opened vehicle door,Driving Properly,Unknown,,Yes,Yes,,,,,,,,,,,103,Lawrence Park South (103),128
-8835193.43409502,5415614.96537904,5363175,1039861,2008,2008/05/24 04:00:00+00,30,3,BAYVIEW Aven,BLOOR Ramp,,,Toronto and East York,11,53,43.677146,-79.367893,Mid-Block,,No Control,Clear,Dark,Dry,Fatal,SMV Other,Motorcycle Driver,25 to 29,Fatal,21,North,Motorcycle,Going Ahead,Exceeding Speed Limit,Unknown,,,,,,,,,,Yes,,,,,Yes,Yes,,,,98,Rosedale-Moore Park (98),129
-8837675.52478124,5414722.13481926,5365581,1040891,2008,2008/05/30 04:00:00+00,746,7,BAY ST,YORKVILLE AVE,,Major Arterial,Toronto and East York,11,53,43.671345,-79.39019,Intersection,,Traffic Signal,Clear,Daylight,Dry,Fatal,Pedestrian Collisions,Pedestrian,70 to 74,Fatal,22,East,Other,,,,Pedestrian involved in a collision with transit vehicle anywhere along roadway,Crossing without right of way,Unknown,,,,Yes,,Yes,,,,,,,,,,,95,Annex (95),130
-8853683.26755731,5402879.24739924,5370894,1043273,2008,2008/06/11 04:00:00+00,2010,20,LAKE SHORE BLVD W,LONG BRANCH AVE,,Major Arterial,Etobicoke York,3,22,43.594345,-79.53399,Intersection,At Intersection,Traffic Signal,Clear,Dusk,Dry,Fatal,Pedestrian Collisions,Pedestrian,60 to 64,Fatal,26,South,Other,,,,Vehicle turns left while ped crosses with ROW at inter.,Crossing with right of way,Normal,,,,Yes,,Yes,,,,,,,Yes,,,,19,Long Branch (19),131
-8831241.25821339,5435738.32313339,5371156,1043405,2008,2008/06/14 04:00:00+00,5,5,3440 PHARMACY AVE,,,Minor Arterial,Scarborough,22,42,43.807745,-79.33239,Mid-Block,,No Control,Rain,Dark,Wet,Fatal,Pedestrian Collisions,Pedestrian,25 to 29,Fatal,23,East,Other,,,,Pedestrian hit at mid-block,"Crossing, no Traffic Control",Unknown,,,,Yes,,Yes,,,,,,,Yes,,,,116,Steeles (116),132
-8831241.25821339,5435738.32313339,5371157,1043405,2008,2008/06/14 04:00:00+00,5,5,3440 PHARMACY AVE,,,Minor Arterial,Scarborough,22,42,43.807745,-79.33239,Mid-Block,,No Control,Rain,Dark,Wet,Fatal,Pedestrian Collisions,Pedestrian,25 to 29,Fatal,24,East,Other,,,,Pedestrian hit at mid-block,"Crossing, no Traffic Control",Unknown,,,,Yes,,Yes,,,,,,,Yes,,,,116,Steeles (116),133
-8849842.74512494,5414044.9893939,5371850,1043747,2008,2008/06/18 04:00:00+00,909,9,SCARLETT RD,BERNICE CRES,,Minor Arterial,Etobicoke York,5,12,43.666945,-79.49949,Intersection,At Intersection,Pedestrian Crossover,Clear,Daylight,Dry,Fatal,Pedestrian Collisions,Pedestrian,85 to 89,Fatal,25,East,Other,,,,Pedestrian hit a PXO/ped. Mid-block signal,"Crossing, Pedestrian Crossover",Normal,,,,Yes,,Yes,,,,,,,Yes,,,,111,Rockcliffe-Smythe (111),134
-8851946.68350094,5422019.98826175,5374246,1044815,2008,2008/06/24 04:00:00+00,2226,22,WILSON AVE,JETHRO RD,,Major Arterial,Etobicoke York,7,31,43.718745,-79.51839,Intersection,At Intersection,Traffic Signal,Clear,Dark,Dry,Fatal,Pedestrian Collisions,Pedestrian,75 to 79,Fatal,27,North,Other,,,,Vehicle is going straight thru inter.while ped cross without ROW,Crossing without right of way,Unknown,,,,Yes,,Yes,,,,,,,Yes,,,,26,Downsview-Roding-CFB (26),135
-8838977.96282352,5409290.97933809,5375124,1045221,2008,2008/06/27 04:00:00+00,53,5,FLEET ST,STADIUM RD,,Major Arterial,Toronto and East York,10,14,43.636045,-79.40189,Intersection,,No Control,Clear,Dark,Dry,Fatal,Approaching,Driver,20 to 24,Fatal,28,West,"Automobile, Station Wagon",Going Ahead,Wrong Way on One Way Road,"Ability Impaired, Alcohol",,,,,,,,,Yes,,,Yes,,Yes,Yes,Yes,,Yes,,82,Niagara (82),136
-8821222.50404199,5424977.72354249,5377816,1046412,2008,2008/07/04 04:00:00+00,1345,13,EGLINTON AVE E,BARBADOS BLVD,,Major Arterial,Scarborough,,43,43.737945,-79.24239,Mid-Block,,No Control,Clear,Daylight,Dry,Fatal,Approaching,Driver,80 to 84,Fatal,29,East,"Automobile, Station Wagon",Going Ahead,Lost control,Unknown,,,,,,,,,Yes,,,,,,,Yes,,,,138,Eglinton East (138),137
-8845890.90320178,5432761.71453294,5381356,1047968,2008,2008/07/11 04:00:00+00,2155,21,STEELES AVE W,HIDDEN TRL,,Major Arterial,North York,6,32,43.788445,-79.46399,Mid-Block,,No Control,Clear,Dark,Dry,Fatal,Approaching,Driver,30 to 34,Fatal,30,East,"Automobile, Station Wagon",Going Ahead,Lost control,Unknown,,,,,,,,,Yes,,Yes,,,Yes,Yes,Yes,,,,35,Westminster-Branson (35),138
-8852069.13494081,5418324.15165415,5380705,1047657,2008,2008/07/12 04:00:00+00,38,3,688 SCARLETT RD,,,Major Arterial,Etobicoke York,2,23,43.694745,-79.51949,Intersection,,No Control,Clear,Dark,Dry,Fatal,SMV Other,Driver,25 to 29,Fatal,31,South,"Automobile, Station Wagon",Overtaking,Exceeding Speed Limit,Unknown,,,,,,,,,Yes,,,,,,Yes,Yes,,,,8,Humber Heights-Westmount (8),139
-8840124.55357869,5415691.77038447,5380768,1047683,2008,2008/07/13 04:00:00+00,2018,20,19 LYNDHURST CRT,,,Local,Toronto and East York,12,13,43.677645,-79.41219,Mid-Block,,No Control,Clear,Dusk,Dry,Fatal,Pedestrian Collisions,Pedestrian,85 to 89,Fatal,32,Unknown,Other,,,,Vehicle is reversing and hits pedestrian,Other,Unknown,,,,Yes,,Yes,,,,,,,,,,,96,Casa Loma (96),140
-8830261.64669441,5416569.14743295,5381219,1047910,2008,2008/07/14 04:00:00+00,1337,13,DANFORTH AVE,COXWELL AVE,,Major Arterial,Toronto and East York,,54,43.683345,-79.32359,Intersection,At Intersection,Traffic Signal,Clear,Daylight,Dry,Fatal,Pedestrian Collisions,Pedestrian,50 to 54,Fatal,33,North,Other,,,,Vehicle is going straight thru inter.while ped cross with ROW,Crossing with right of way,Normal,,,,Yes,,Yes,,,,,Yes,Yes,Yes,,,Yes,64,Woodbine Corridor (64),141
-8841003.97755596,5434226.76441648,5384104,1049124,2008,2008/07/21 04:00:00+00,305,3,STEELES AVE E,YONGE ST,,Major Arterial,North York,18,32,43.797945,-79.42009,Intersection,At Intersection,Traffic Signal,Clear,Dark,Dry,Fatal,Pedestrian Collisions,Pedestrian,35 to 39,Fatal,34,North,Other,,,,Vehicle is going straight thru inter.while ped cross without ROW,Crossing without right of way,Unknown,,,,Yes,,Yes,,,,,Yes,,,,,,50,Newtonbrook East (50),142
-8837285.90656346,5419017.00831704,5391374,1052382,2008,2008/08/09 04:00:00+00,1035,10,BALLIOL ST,MOUNT PLEASANT RD,,Major Arterial,North York,,53,43.699245,-79.38669,Intersection,At Intersection,Stop Sign,Clear,Daylight,Dry,Fatal,Pedestrian Collisions,Pedestrian,80 to 84,Fatal,35,North,Other,,,,Vehicle turns left while ped crosses with ROW at inter.,Crossing with right of way,Normal,,,,Yes,,Yes,,Yes,,,Yes,,Yes,,,,99,Mount Pleasant East (99),143
-8829437.88246254,5434211.34162582,5394193,1053672,2008,2008/08/17 04:00:00+00,2125,21,WARDEN Aven,FINCH Aven E,,Major Arterial,Scarborough,22,42,43.797845,-79.31619,Mid-Block,,No Control,Clear,Dark,Dry,Fatal,Pedestrian Collisions,Pedestrian,45 to 49,Fatal,36,East,Other,Going Ahead,,,Pedestrian hit at mid-block,"Crossing, no Traffic Control","Ability Impaired, Alcohol",,,,Yes,,Yes,,,,,,,,,,,117,L'Amoreaux (117),144
-8846113.54218337,5424469.29531046,5397763,1055195,2008,2008/08/26 04:00:00+00,1111,11,PLEWES RD,ANCASTER RD,,Collector,North York,6,32,43.734645,-79.46599,Mid-Block,,No Control,Clear,Daylight,Dry,Fatal,Pedestrian Collisions,Pedestrian,75 to 79,Fatal,37,South,Other,,,,Vehicle is reversing and hits pedestrian,Other,Unknown,,,,Yes,,Yes,,,,,,,,,,,26,Downsview-Roding-CFB (26),145
-8821600.99031069,5437543.26397125,5402315,1057151,2008,2008/09/08 04:00:00+00,2150,21,MARKHAM RD,NASHDENE RD,,Major Arterial,Scarborough,23,42,43.819445,-79.24579,Mid-Block,,No Control,Rain,Dark,Wet,Fatal,Pedestrian Collisions,Pedestrian,45 to 49,Fatal,38,West,Other,,,,Pedestrian hit at mid-block,Running onto Roadway,Unknown,,,,Yes,,Yes,,,,,,,,,,,131,Rouge (131),146
-8849787.08537955,5418724.46249484,5404091,1057892,2008,2008/09/10 04:00:00+00,806,8,TRETHEWEY DR,TEDDER ST,,Minor Arterial,Etobicoke York,5,12,43.697345,-79.49899,Intersection,At Intersection,No Control,Clear,Daylight,Dry,Fatal,Cyclist Collisions,Cyclist,50 to 54,Fatal,39,West,Bicycle,,,,,,,Motorist turned left across cyclists path.,Driving Properly,Normal,,Yes,Yes,,,,,,Yes,Yes,,,,30,Brookhaven-Amesbury (30),147
-8828513.93068895,5415122.28954162,5407846,1059399,2008,2008/09/17 04:00:00+00,1838,18,KINGSTON RD,WOODBINE AVE,,Major Arterial,Toronto and East York,19,55,43.673945,-79.30789,Intersection,At Intersection,Traffic Signal,Clear,Daylight,Dry,Fatal,Approaching,Truck Driver,45 to 49,Fatal,40,West,Truck - Open,Going Ahead,Lost control,Medical or Physical Disability,,,,,,,,,Yes,,Yes,,,,,,,,Yes,63,The Beaches (63),148
-8858826.22803196,5416615.32748145,5410250,1060516,2008,2008/09/23 04:00:00+00,1652,16,HIGHWAY 27  S,DIXON RD,,Major Arterial,Etobicoke York,1,23,43.683645,-79.58019,Mid-Block,,No Control,Clear,Daylight,Wet,Fatal,Approaching,Driver,25 to 29,Fatal,41,North,"Automobile, Station Wagon",Pulling Away from Shoulder or Curb,Lost control,Unknown,,,,,,,,,Yes,,Yes,,,,,,,,,1,West Humber-Clairville (1),149
-8852247.24612608,5421927.57430853,5412194,1061341,2008,2008/09/28 04:00:00+00,545,5,WILSON AVE,HIGHWAY 400  S,,Major Arterial,Etobicoke York,7,31,43.718145,-79.52109,Intersection,At Intersection,No Control,Clear,Dark,Wet,Fatal,SMV Other,Driver,55 to 59,Fatal,42,East,"Automobile, Station Wagon",Going Ahead,Exceeding Speed Limit,Had Been Drinking,,,,,,,,,Yes,,,,,,Yes,Yes,,,,26,Downsview-Roding-CFB (26),150
-8840592.09544002,5431959.8911017,5414745,1062415,2008,2008/10/02 04:00:00+00,1025,10,YONGE ST,BISHOP AVE,,Major Arterial,North York,18,32,43.783245,-79.41639,Mid-Block,,No Control,Clear,Daylight,Dry,Fatal,Pedestrian Collisions,Pedestrian,85 to 89,Fatal,43,West,Other,,,,Pedestrian hit at mid-block,"Crossing, no Traffic Control",Inattentive,,,,Yes,,Yes,,,,,,,,,,,50,Newtonbrook East (50),151
-8846213.95236407,5409336.96920772,5415209,1062626,2008,2008/10/03 04:00:00+00,2327,23,F G GARDINER XY  E,ELLIS AVE,,,Toronto and East York,4,11,43.636344,-79.466892,Mid-Block,,No Control,Clear,Dark,Dry,Fatal,Rear End,Motorcycle Driver,35 to 39,Fatal,44,East,Motorcycle,Merging,Exceeding Speed Limit,Had Been Drinking,,,,,,,,,Yes,Yes,,,,Yes,Yes,Yes,,,,85,South Parkdale (85),152
-8828925.81280489,5418154.79460024,5420532,1064977,2008,2008/10/17 04:00:00+00,1755,17,LUMSDEN AVE,GLEDHILL AVE,,Minor Arterial,Toronto and East York,19,54,43.693645,-79.31159,Intersection,At Intersection,Pedestrian Crossover,Clear,Daylight,Dry,Fatal,Pedestrian Collisions,Pedestrian,70 to 74,Fatal,46,South,Other,,,,Pedestrian hit a PXO/ped. Mid-block signal,"Crossing, Pedestrian Crossover",Normal,,,,Yes,,Yes,,,,,,,Yes,,,,60,Woodbine-Lumsden (60),153
-8835304.41962734,5415784.12193814,5420897,1065135,2008,2008/10/18 04:00:00+00,1315,13,BAYVIEW BLOOR S RAMP N,BLOOR RAMP,,,Toronto and East York,11,53,43.678245,-79.36889,Mid-Block,,No Control,Clear,Daylight,Dry,Fatal,Approaching,Motorcycle Driver,30 to 34,Fatal,45,East,Motorcycle,Going Ahead,Lost control,Unknown,,,,,,,,,Yes,Yes,,,,Yes,,,,,,98,Rosedale-Moore Park (98),154
-8859115.65870802,5417600.55686934,5421906,1065595,2008,2008/10/21 04:00:00+00,545,5,HIGHWAY 27 Ramp S,27 S DIXON W RAMP,,Major Arterial,Etobicoke York,1,23,43.690045,-79.58279,Mid-Block,,No Control,Clear,Dark,Dry,Fatal,SMV Other,Truck Driver,20 to 24,Fatal,47,South,Truck - Open,Going Ahead,Exceeding Speed Limit,Normal,,,,,,,,,,,Yes,,,,Yes,Yes,,,,1,West Humber-Clairville (1),155
-8829671.6533932,5423159.83645039,5423383,1066274,2008,2008/10/24 04:00:00+00,2235,22,EGLINTON AVE E,SWIFT DR,,Major Arterial,North York,16,33,43.726145,-79.31829,Intersection,At Intersection,Traffic Signal,Rain,Dark,Wet,Fatal,Pedestrian Collisions,Pedestrian,75 to 79,Fatal,48,North,Other,,,,Vehicle is going straight thru inter.while ped cross without ROW,Crossing without right of way,Unknown,,,,Yes,,Yes,,,,,,,,,,,43,Victoria Village (43),156
-8850555.18986602,5418632.08152948,5423630,1066390,2008,2008/10/25 04:00:00+00,2329,23,DENISON RD E,JANE ST,,Collector,Etobicoke York,5,12,43.696745,-79.50589,Mid-Block,,Traffic Gate,Clear,Dark,Dry,Fatal,Pedestrian Collisions,Pedestrian,20 to 24,Fatal,49,East,Other,,,,Pedestrian hit at mid-block,Other,Unknown,,,,Yes,,Yes,,,,,,,,,,,113,Weston (113),157
-8811905.0626626,5432792.5552887,5425836,1067364,2008,2008/10/31 04:00:00+00,817,8,HIGHWAY 2A  E,LAWSON RD,,,Scarborough,25,43,43.788645,-79.15869,Mid-Block,,No Control,Clear,Daylight,Dry,Fatal,SMV Other,Driver,55 to 59,Fatal,50,East,"Automobile, Station Wagon",Going Ahead,Driving Properly,Medical or Physical Disability,,,,,,,,,Yes,,,,,,,,,,Yes,133,Centennial Scarborough (133),158
-8843664.51338592,5409352.504299,5426990,1067883,2008,2008/11/03 05:00:00+00,930,9,1491 LAKE SHORE BLVD W,,,Major Arterial,Toronto and East York,4,14,43.636445,-79.44399,Mid-Block,,No Control,Clear,Daylight,Dry,Fatal,SMV Other,Passenger,90 to 94,Fatal,51,,Other,,,,,,,,,,,,Yes,,,,,Yes,,,,,,85,South Parkdale (85),159
-8831693.43798499,5437142.4439996,5430130,1069315,2008,2008/11/11 05:00:00+00,720,7,PHARMACY AVE,STEELES AVE E,,Major Arterial,Scarborough,22,42,43.816847,-79.336452,Intersection,At Intersection,Traffic Signal,Clear,Daylight,Dry,Fatal,Pedestrian Collisions,Pedestrian,55 to 59,Fatal,52,West,Other,,,,Vehicle turns right while ped crosses with ROW at inter.,Crossing with right of way,Unknown,,,,Yes,,,,,Yes,,,,Yes,,,,116,Steeles (116),160
-8829304.29907359,5433748.66990771,5437265,1072541,2008,2008/11/26 05:00:00+00,1714,17,WARDEN AVE,FINCH AVE E,,Major Arterial,Scarborough,22,42,43.794845,-79.31499,Mid-Block,,No Control,Rain,Dark,Wet,Fatal,Pedestrian Collisions,Pedestrian,55 to 59,Fatal,53,West,Other,,,,Pedestrian hit at mid-block,"Crossing, no Traffic Control",Unknown,,,,Yes,,Yes,,,,,Yes,,,,,,117,L'Amoreaux (117),161
-8816357.84229433,5434889.96883424,5444199,1075633,2008,2008/12/13 05:00:00+00,2101,21,SHEPPARD AVE E,MORNINGSIDE AVE,,Major Arterial,Scarborough,25,42,43.802245,-79.19869,Mid-Block,,No Control,Clear,Dark,Wet,Fatal,Turning Movement,Driver,30 to 34,Fatal,54,West,"Automobile, Station Wagon",Turning Left,Improper Turn,Unknown,,,,,,,,,Yes,,,,,,,,,,,131,Rouge (131),162
-8821645.51810701,5424839.05851858,5188679,1078551,2009,2009/01/01 05:00:00+00,259,2,EGLINTON AVE E,DANFORTH RD,,Major Arterial,Scarborough,,43,43.737045,-79.24619,Intersection,At Intersection,Traffic Signal,Clear,Dark,Wet,Fatal,Pedestrian Collisions,Pedestrian,50 to 54,Fatal,1,North,Other,,,,Vehicle is going straight thru inter.while ped cross without ROW,Crossing without right of way,"Ability Impaired, Alcohol Over .80",,,,Yes,,Yes,,,,,,,,,,,138,Eglinton East (138),163
-8836885.15639661,5429570.25418187,5189457,1079671,2009,2009/01/06 05:00:00+00,1349,13,SHEPPARD AVE E,REAN DR,,Major Arterial,North York,17,33,43.767745,-79.38309,Intersection,At Intersection,Traffic Signal,Clear,Daylight,Dry,Fatal,Pedestrian Collisions,Pedestrian,65 to 69,Fatal,2,North,Other,,,,Vehicle turns left while ped crosses with ROW at inter.,Crossing with right of way,Unknown,,,,Yes,,Yes,,,,,,,Yes,,,,52,Bayview Village (52),164
-8854618.35127998,5427150.41442372,5198135,1085959,2009,2009/02/02 05:00:00+00,1610,16,FINCH AVE W,WESTON RD,,Major Arterial,Etobicoke York,7,31,43.752045,-79.54239,Intersection,At Intersection,Traffic Signal,Clear,Daylight,Dry,Fatal,Pedestrian Collisions,Pedestrian,90 to 94,Fatal,3,North,Other,,,,Vehicle turns left while ped crosses with ROW at inter.,Crossing with right of way,Medical or Physical Disability,,,,Yes,,,,Yes,,,,,Yes,,,,22,Humbermede (22),165
-8820699.30243527,5429755.23621245,5204827,1088989,2009,2009/02/13 05:00:00+00,125,1,423 BRIMORTON DR,,,Collector,Scarborough,24,43,43.768945,-79.23769,Mid-Block,,No Control,Clear,Dark,Dry,Fatal,SMV Other,Passenger,20 to 24,Fatal,4,,Other,,,,,,,,,,,,Yes,,,,,Yes,,,,Yes,,137,Woburn (137),166
-8844811.10414109,5425578.62939878,5213959,1093141,2009,2009/03/07 05:00:00+00,440,4,WILLIAM R ALLEN RD,TRANSIT RD,,Major Arterial,North York,6,32,43.741845,-79.45429,Intersection,At Intersection,Traffic Signal,Clear,Dark,Wet,Fatal,SMV Other,Driver,20 to 24,Fatal,5,North,"Automobile, Station Wagon",Going Ahead,Lost control,Unknown,,,,,,,,,Yes,,,,,,,,,,,33,Clanton Park (33),167
-8817682.54423477,5424962.31621469,5214090,1093203,2009,2009/03/08 05:00:00+00,350,3,HILL CRES,HEATHFIELD DR,,Collector,Scarborough,24,43,43.737845,-79.21059,Intersection,,No Control,Rain,Dark,Wet,Fatal,SMV Other,Passenger,20 to 24,Fatal,6,,Other,,,,,,,,,,,,Yes,,,,,Yes,Yes,Yes,,Yes,,139,Scarborough Village (139),168
-8857109.57016444,5429383.73439195,5215511,1093819,2009,2009/03/11 04:00:00+00,652,6,STEELES AVE W,PINE VALLEY  DR,,Major Arterial,Etobicoke York,7,31,43.766535,-79.564769,Intersection,At Intersection,Traffic Signal,Rain,Dark,Wet,Fatal,Pedestrian Collisions,Pedestrian,55 to 59,Fatal,7,South,Other,,,,Pedestrian hit at mid-block,"Crossing, no Traffic Control",Inattentive,,,,Yes,,,,Yes,,,,,,,,,21,Humber Summit (21),169
-8833033.61333465,5413952.80911672,5807227,1094299,2009,2009/03/13 04:00:00+00,914,9,GERRARD ST E,DE GRASSI ST,,Minor Arterial,Toronto and East York,14,55,43.666346,-79.348491,Intersection,At Intersection,Pedestrian Crossover,Other,Daylight,Other,Fatal,Pedestrian Collisions,Pedestrian,85 to 89,Fatal,8,South,Other,,,,Pedestrian involved in a collision with transit vehicle anywhere along roadway,"Crossing, Pedestrian Crossover",Normal,,,,Yes,,,,,Yes,,,,Yes,,,,70,South Riverdale (70),170
-8837797.97622111,5410429.25741907,5792281,1096330,2009,2009/03/25 04:00:00+00,2128,21,FRONT ST W,BLUE JAYS WAY,,Minor Arterial,Toronto and East York,10,52,43.643445,-79.39129,Intersection,At Intersection,Traffic Signal,Rain,Dark,Wet,Fatal,Pedestrian Collisions,Pedestrian,25 to 29,Fatal,9,South,Other,,,,Vehicle turns right while ped crosses with ROW at inter.,Crossing with right of way,Inattentive,,,,Yes,,,,Yes,,,,,Yes,,,,77,Waterfront Communities-The Island (77),171
-8836350.8228408,5413937.26628917,5226635,1098793,2009,2009/04/03 04:00:00+00,1429,14,JARVIS ST,WELLESLEY ST E,,Major Arterial,Toronto and East York,13,51,43.666245,-79.37829,Intersection,At Intersection,Traffic Signal,Rain,Daylight,Wet,Fatal,Pedestrian Collisions,Pedestrian,90 to 94,Fatal,11,East,Other,,,,Vehicle turns left while ped crosses without ROW at inter.,Crossing without right of way,Inattentive,,,,Yes,,Yes,,,,,,,,,,,71,Cabbagetown-South St.James Town (71),172
-8839879.65069894,5413798.76700033,5224187,1097712,2009,2009/04/04 04:00:00+00,228,2,LIPPINCOTT ST,BLOOR ST W,,Major Arterial,Toronto and East York,11,14,43.665345,-79.40999,Intersection,,No Control,Rain,Dark,Wet,Fatal,Pedestrian Collisions,Pedestrian,25 to 29,Fatal,10,West,Other,,,,Pedestrian hit at mid-block,Other,Had Been Drinking,,,,Yes,,Yes,,,,,,,,,Yes,,79,University (79),173
-8845801.84760915,5415137.68045408,5228974,1099856,2009,2009/04/17 04:00:00+00,1045,10,TOWNSLEY ST,OLD WESTON RD,,Minor Arterial,Toronto and East York,9,12,43.674045,-79.46319,Intersection,,Stop Sign,Clear,Daylight,Dry,Fatal,Pedestrian Collisions,Pedestrian,65 to 69,Fatal,12,North,Other,,,,Vehicle is reversing and hits pedestrian,Other,Normal,,,,Yes,,Yes,,,,,,,,,,,91,Weston-Pellam Park (91),174
-8844227.34473137,5410872.60852159,5229859,1100239,2009,2009/04/20 04:00:00+00,1330,13,RONCESVALLES AVE,HIGH PARK BLVD,,Minor Arterial,Toronto and East York,4,11,43.646327,-79.449046,Intersection,,Traffic Signal,Rain,Daylight,Wet,Fatal,Pedestrian Collisions,Pedestrian,85 to 89,Fatal,13,West,Other,,,,Vehicle turns left while ped crosses with ROW at inter.,Crossing with right of way,Normal,,,,Yes,,,,,Yes,,,,Yes,,,,86,Roncesvalles (86),175
-8838744.19189285,5417123.32325753,5234607,1102324,2009,2009/05/01 04:00:00+00,1236,12,ST CLAIR AVE W,ORIOLE RD,,Major Arterial,Toronto and East York,12,53,43.686945,-79.39979,Intersection,,No Control,Clear,Daylight,Dry,Fatal,SMV Unattended Vehicle,Passenger,90 to 94,Fatal,14,,Other,,,,,,,,,,,,Yes,,,,,Yes,,,,,,97,Yonge-St.Clair (97),176
-8861776.19453798,5424330.637928,5247781,1108193,2009,2009/06/05 04:00:00+00,1547,15,FINCH AVE W,HALESIA DR,,Major Arterial,Etobicoke York,1,23,43.733745,-79.60669,Intersection,At Intersection,Traffic Signal,Clear,Daylight,Dry,Fatal,Turning Movement,Motorcycle Driver,35 to 39,Fatal,15,East,Motorcycle,Slowing or Stopping,Lost control,Unknown,,,,,,,,,Yes,Yes,,,,,,Yes,,,,1,West Humber-Clairville (1),177
-8845935.4309981,5413737.21242737,5792457,1109820,2009,2009/06/17 04:00:00+00,1708,17,KEELE ST,DUNDAS ST W,,Major Arterial,Toronto and East York,4,11,43.664945,-79.46439,Mid-Block,,No Control,Rain,Daylight,Wet,Fatal,Pedestrian Collisions,Pedestrian,85 to 89,Fatal,16,Unknown,Other,,,,Pedestrian hit at mid-block,Other,Normal,,,,Yes,,,,Yes,,,,,,,,,90,Junction Area (90),178
-8843664.51338592,5412675.46059786,5253286,1110725,2009,2009/06/23 04:00:00+00,1449,14,BLOOR ST W,ST HELENS AVE,,Major Arterial,Toronto and East York,9,11,43.658045,-79.44399,Intersection,At Intersection,Stop Sign,Clear,Daylight,Dry,Fatal,Pedestrian Collisions,Pedestrian,75 to 79,Fatal,17,West,Other,,,,Vehicle turns left while ped crosses with ROW at inter.,Crossing with right of way,Normal,,,,Yes,,,,Yes,,,,,Yes,,,,83,Dufferin Grove (83),179
-8821233.63599107,5433471.07802583,5792492,1111945,2009,2009/06/30 04:00:00+00,1930,19,5050 SHEPPARD AVE E,,,Major Arterial,Scarborough,23,42,43.793045,-79.24249,Mid-Block,,No Control,Clear,Daylight,Dry,Fatal,Pedestrian Collisions,Pedestrian,70 to 74,Fatal,24,East,Other,,,,Pedestrian involved in a collision with transit vehicle anywhere along roadway,On Sidewalk or Shoulder,Normal,,,,Yes,,,,,Yes,,,,Yes,,,,128,Agincourt South-Malvern West (128),180
-8830751.4524539,5422019.98826175,5257705,1112683,2009,2009/07/06 04:00:00+00,2030,20,DON VALLEY PARKWAY  N,ST DENNIS DR,,,North York,16,54,43.718745,-79.32799,Mid-Block,,No Control,Clear,Daylight,Dry,Fatal,SMV Other,Passenger,20 to 24,Fatal,18,,Other,,,,,,,,,,,,Yes,,,,,Yes,Yes,Yes,,,,44,Flemingdon Park (44),181
-8830751.4524539,5422019.98826175,5257707,1112683,2009,2009/07/06 04:00:00+00,2030,20,DON VALLEY PARKWAY  N,ST DENNIS DR,,,North York,16,54,43.718745,-79.32799,Mid-Block,,No Control,Clear,Daylight,Dry,Fatal,SMV Other,Driver,20 to 24,Fatal,19,North,"Automobile, Station Wagon",Changing Lanes,Exceeding Speed Limit,Unknown,,,,,,,,,Yes,,,,,Yes,Yes,Yes,,,,44,Flemingdon Park (44),182
-8829404.4866153,5418016.23204851,5807668,1114902,2009,2009/07/18 04:00:00+00,1137,11,WOODBINE AVE,MORTIMER AVE,,Major Arterial,Toronto and East York,19,54,43.692745,-79.31589,Intersection,At Intersection,Traffic Signal,Clear,Daylight,Dry,Fatal,Pedestrian Collisions,Pedestrian,85 to 89,Fatal,20,West,Other,,,,Vehicle is going straight thru inter.while ped cross without ROW,Crossing without right of way,Inattentive,,,,Yes,,Yes,,,,,Yes,,,,,,60,Woodbine-Lumsden (60),183
-8825441.51274306,5416769.26264435,5792659,1117854,2009,2009/08/07 04:00:00+00,1448,14,179 FALLINGBROOK RD,,,Collector,Scarborough,20,41,43.684645,-79.28029,Intersection,,No Control,Clear,Daylight,Dry,Fatal,Pedestrian Collisions,Pedestrian,80 to 84,Fatal,21,North,Other,,,,Pedestrian hit at private driveway,Other,Medical or Physical Disability,,,,Yes,,Yes,,,,,,,,,,,122,Birchcliffe-Cliffside (122),184
-8843942.92343239,5421542.37211452,5792840,1121624,2009,2009/08/27 04:00:00+00,947,9,LAWRENCE AVE W,MARLEE AVE,,Major Arterial,North York,8,32,43.715644,-79.446491,Intersection,At Intersection,Traffic Signal,Clear,Daylight,Dry,Fatal,Pedestrian Collisions,Pedestrian,85 to 89,Fatal,22,South,Other,,,,Vehicle turns left while ped crosses with ROW at inter.,Crossing with right of way,Normal,,,,Yes,,Yes,,,,,,,Yes,,,,31,Yorkdale-Glen Park (31),185
-8838009.7058926,5414337.38701075,5278939,1121922,2009,2009/08/31 04:00:00+00,2150,21,BLOOR ST W,AVENUE RD,,Major Arterial,Toronto and East York,11,53,43.668845,-79.393192,Mid-Block,,No Control,Clear,Dark,Dry,Fatal,Pedestrian Collisions,Pedestrian,30 to 34,Fatal,23,West,,,,,Other / Undefined,Other,Had Been Drinking,,,,Yes,,Yes,,,,,,,,,,,76,Bay Street Corridor (76),186
-8838677.40019838,5412336.9566824,5807804,1122417,2009,2009/09/01 04:00:00+00,1203,12,SPADINA AVE,NASSAU ST,,Major Arterial,Toronto and East York,11,52,43.655845,-79.39919,Intersection,,Traffic Signal,Clear,Daylight,Dry,Fatal,Cyclist Collisions,Cyclist,65 to 69,Fatal,25,South,Bicycle,Turning Left,,,,,,Cyclist turned left across motorists path.,Disobeyed Traffic Control,Normal,,Yes,,,,Yes,,,,,,,,78,Kensington-Chinatown (78),187
-8828257.89586013,5424037.92363024,5807863,1124221,2009,2009/09/11 04:00:00+00,2009,20,VICTORIA PARK AVE,ARNCLIFFE CRES,,Major Arterial,North York,,41,43.731845,-79.30559,Intersection,At Intersection,Traffic Signal,Clear,Dark,Dry,Fatal,Pedestrian Collisions,Pedestrian,15 to 19,Fatal,26,East,Other,,,,Vehicle is going straight thru inter.while ped cross without ROW,Crossing without right of way,Inattentive,,,,Yes,,Yes,,,,,,,,,,,119,Wexford/Maryvale (119),188
-8858803.9641338,5425131.79823579,5285851,1124865,2009,2009/09/15 04:00:00+00,1400,14,KIPLING AVE,ALBION RD,,Major Arterial,Etobicoke York,1,23,43.738945,-79.57999,Mid-Block,,No Control,Clear,Daylight,Dry,Fatal,Pedestrian Collisions,Pedestrian,75 to 79,Fatal,27,East,Other,,,,Pedestrian hit at mid-block,"Crossing, no Traffic Control",Inattentive,,,,Yes,,Yes,,,,,,,,,,,3,Thistletown-Beaumond Heights (3),189
-8828135.44442026,5428429.61365528,5298514,1130411,2009,2009/09/19 04:00:00+00,1418,14,ELLESMERE RD,DEWEY DR,,Major Arterial,Scarborough,21,41,43.760345,-79.30449,Intersection,At Intersection,Stop Sign,Clear,Daylight,Dry,Fatal,Turning Movement,Driver,85 to 89,Fatal,28,North,"Automobile, Station Wagon",Turning Left,Failed to Yield Right of Way,Inattentive,,,,,,,,,Yes,,,,,,,Yes,,,,119,Wexford/Maryvale (119),190
-8850855.75249116,5422358.84734125,5292071,1127576,2009,2009/09/29 04:00:00+00,1122,11,JANE ST,WILSON AVE,,Major Arterial,Etobicoke York,,31,43.720945,-79.50859,Intersection,At Intersection,Traffic Signal,Rain,Daylight,Wet,Fatal,Pedestrian Collisions,Pedestrian,85 to 89,Fatal,30,East,Other,,,,Pedestrian hit on sidewalk or shoulder,On Sidewalk or Shoulder,Medical or Physical Disability,,,,Yes,,,,Yes,,,,,,,,,26,Downsview-Roding-CFB (26),191
-8836194.97555369,5414876.03843012,5793634,1133034,2009,2009/10/02 04:00:00+00,1400,14,BLOOR ST E,SHERBOURNE ST N,,Major Arterial,Toronto and East York,,53,43.672345,-79.37689,Intersection,,Traffic Signal,Rain,Daylight,Wet,Fatal,Pedestrian Collisions,Pedestrian,40 to 44,Fatal,31,North,Other,,,,Pedestrian hit at mid-block,"Crossing, no Traffic Control",Inattentive,,,,Yes,,Yes,,,,,,,,,,,98,Rosedale-Moore Park (98),192
-8825530.56833569,5429261.95904427,5298469,1130393,2009,2009/10/13 04:00:00+00,656,6,KENNEDY RD,ELLESMERE RD,,Major Arterial,Scarborough,21,41,43.765745,-79.28109,Intersection,,Traffic Signal,Rain,Dawn,Wet,Fatal,SMV Other,Passenger,35 to 39,Fatal,29,,Other,,,,,,,,,,,,Yes,,,,,Yes,,,,,,126,Dorset Park (126),193
-8841694.15839888,5434026.27015116,5793443,1131172,2009,2009/10/16 04:00:00+00,1301,13,STEELES AVE W,TANGREEN CRT,,Major Arterial,North York,18,32,43.796645,-79.42629,Intersection,,No Control,Clear,Daylight,Dry,Fatal,Pedestrian Collisions,Pedestrian,80 to 84,Fatal,41,South,Other,,,,Vehicle is going straight thru inter.while ped cross without ROW,"Crossing, no Traffic Control",Inattentive,,,,Yes,,Yes,,,,,,,,,,,36,Newtonbrook West (36),194
-8850777.82884761,5428260.07102715,5793455,1131264,2009,2009/10/17 04:00:00+00,2352,23,FINCH AVE W,TOBERMORY DR,,Major Arterial,Etobicoke York,7,31,43.759245,-79.50789,Intersection,At Intersection,Traffic Signal,Clear,Dark,Dry,Fatal,Turning Movement,Passenger,60 to 64,Fatal,34,,Other,,,,,,,,,,,,Yes,,,,,Yes,Yes,Yes,,Yes,,25,Glenfield-Jane Heights (25),195
-8850777.82884761,5428260.07102715,5793457,1131264,2009,2009/10/17 04:00:00+00,2352,23,FINCH AVE W,TOBERMORY DR,,Major Arterial,Etobicoke York,7,31,43.759245,-79.50789,Intersection,At Intersection,Traffic Signal,Clear,Dark,Dry,Fatal,Turning Movement,Passenger,40 to 44,Fatal,33,,Other,,,,,,,,,,,,Yes,,,,,Yes,Yes,Yes,,Yes,,25,Glenfield-Jane Heights (25),196
-8850777.82884761,5428260.07102715,5793458,1131264,2009,2009/10/17 04:00:00+00,2352,23,FINCH AVE W,TOBERMORY DR,,Major Arterial,Etobicoke York,7,31,43.759245,-79.50789,Intersection,At Intersection,Traffic Signal,Clear,Dark,Dry,Fatal,Turning Movement,Passenger,20 to 24,Fatal,32,,Other,,,,,,,,,,,,Yes,,,,,Yes,Yes,Yes,,Yes,,25,Glenfield-Jane Heights (25),197
-8854740.80271985,5427813.10994782,5040685,1132127,2009,2009/10/21 04:00:00+00,1255,12,WESTON RD,FENMAR DR,,Major Arterial,Etobicoke York,7,31,43.756345,-79.54349,Mid-Block,At Intersection,No Control,Rain,Daylight,Wet,Fatal,Pedestrian Collisions,Pedestrian,50 to 54,Fatal,35,Unknown,Other,,,,Other / Undefined,Pushing/Working on Vehicle,Unknown,,,,Yes,,,,Yes,,,,,,,,,21,Humber Summit (21),198
-8819207.62125864,5437157.56314314,5041268,1132676,2009,2009/10/23 04:00:00+00,715,7,FINCH AVE E,BLACKBIRD GT,,Minor Arterial,Scarborough,25,42,43.816945,-79.22429,Intersection,At Intersection,No Control,Rain,Dark,Wet,Fatal,Pedestrian Collisions,Pedestrian,60 to 64,Fatal,36,North,Other,,,,Vehicle is going straight thru inter.while ped cross without ROW,"Crossing, no Traffic Control",Inattentive,,,,Yes,,Yes,,,,,,,,,,,132,Malvern (132),199
-8849286.14767098,5431697.77164625,5808324,1134244,2009,2009/10/31 04:00:00+00,901,9,KEELE ST,STEELES AVE W,,Major Arterial,Etobicoke York,,31,43.781545,-79.49449,Intersection,At Intersection,Traffic Signal,Rain,Daylight,Wet,Fatal,Turning Movement,Driver,15 to 19,Fatal,38,South,"Automobile, Station Wagon",Going Ahead,Disobeyed Traffic Control,Inattentive,,,,,,,,,Yes,,,,,Yes,,Yes,Yes,,,27,York University Heights (27),200
-8823048.143691,5424684.98871418,5044012,1134663,2009,2009/11/03 05:00:00+00,1445,14,GILDER DR,MIDLAND AVE,,Major Arterial,Scarborough,21,41,43.736045,-79.25879,Intersection,At Intersection,Traffic Signal,Clear,Daylight,Dry,Fatal,Pedestrian Collisions,Pedestrian,85 to 89,Fatal,37,East,Other,,,,Vehicle turns left while ped crosses with ROW at inter.,Crossing with right of way,Unknown,,,,Yes,,Yes,,,,,,,Yes,,,,138,Eglinton East (138),201
-8826777.34663258,5429554.83918018,5808432,1136272,2009,2009/11/12 05:00:00+00,1759,17,BIRCHMOUNT RD,ROLARK DR,,Major Arterial,Scarborough,21,41,43.767645,-79.29229,Intersection,,No Control,Clear,Dusk,Dry,Fatal,Pedestrian Collisions,Pedestrian,45 to 49,Fatal,39,West,Other,,,,Vehicle is going straight thru inter.while ped cross without ROW,"Crossing, no Traffic Control",Inattentive,,,,Yes,,Yes,,,,,,,,,,,126,Dorset Park (126),202
-8843274.89516814,5433378.54925654,5048469,1137250,2009,2009/11/17 05:00:00+00,845,8,GREENWIN VILLAGE RD,VILLAGE GT,,Collector,North York,18,32,43.792445,-79.44049,Intersection,At Intersection,Stop Sign,Clear,Daylight,Dry,Fatal,Pedestrian Collisions,Pedestrian,65 to 69,Fatal,40,North,Other,,,,Vehicle turns left while ped crosses without ROW at inter.,"Crossing, no Traffic Control",Normal,,,,Yes,,Yes,,,,,,,,,,,36,Newtonbrook West (36),203
-8825074.15842344,5419525.13625291,5808587,1138618,2009,2009/11/24 05:00:00+00,630,6,WARDEN AVE,CATARAQUI CRES,,Minor Arterial,Scarborough,20,41,43.702545,-79.27699,Intersection,At Intersection,No Control,Rain,Dark,Wet,Fatal,Pedestrian Collisions,Pedestrian,45 to 49,Fatal,42,East,Other,,,,Pedestrian hit at mid-block,"Crossing, no Traffic Control",Unknown,,,,Yes,,Yes,,,,,,,,,,,120,Clairlea-Birchmount (120),204
-8859037.73506447,5425794.34874127,5808802,1140944,2009,2009/12/08 05:00:00+00,540,5,FINCH AVE W,KIPLING AVE,,Major Arterial,Etobicoke York,1,23,43.743245,-79.58209,Intersection,At Intersection,Traffic Signal,Clear,Dark,Dry,Fatal,Pedestrian Collisions,Pedestrian,70 to 74,Fatal,43,North,Other,,,,Other / Undefined,Other,Normal,,,,Yes,,Yes,,,,,,,,,,,3,Thistletown-Beaumond Heights (3),205
-8833723.68285808,5433409.39207642,5794771,1140988,2009,2009/12/08 05:00:00+00,1456,14,FINCH AVE E,DON MILLS RD,,Major Arterial,North York,17,33,43.792645,-79.35469,Intersection,,Traffic Signal,Clear,Daylight,Dry,Fatal,Turning Movement,Passenger,85 to 89,Fatal,44,,Other,,,,,,,,,,,,Yes,,,,,Yes,,,,,,47,Don Valley Village (47),206
-8845222.98625702,5424099.54692119,5795267,1142168,2009,2009/12/15 05:00:00+00,122,1,WILSON AVE,DUFFERIN ST,,Major Arterial,North York,6,32,43.732245,-79.45799,Mid-Block,At Intersection,No Control,Clear,Dark,Wet,Fatal,SMV Unattended Vehicle,Driver,25 to 29,Fatal,45,West,"Automobile, Station Wagon",Going Ahead,Lost control,Had Been Drinking,,,,,,,,,Yes,,,,,,,,,,,33,Clanton Park (33),207
-8835348.94742366,5414968.38182756,5795671,1142865,2009,2009/12/17 05:00:00+00,1950,19,BLOOR ST E,CASTLE FRANK CRES,,Major Arterial,Toronto and East York,11,51,43.672945,-79.36929,Mid-Block,At Intersection,No Control,Clear,Dark,Dry,Fatal,Pedestrian Collisions,Pedestrian,60 to 64,Fatal,46,North,Other,,,,Pedestrian hit at mid-block,Running onto Roadway,Inattentive,,,,Yes,,Yes,,,,,,,,,,,71,Cabbagetown-South St.James Town (71),208
-8818484.04456848,5425008.5382753,5796401,1143989,2009,2009/12/23 05:00:00+00,935,9,KINGSTON RD,MARKHAM RD,,Major Arterial,Scarborough,20,43,43.738145,-79.21779,Mid-Block,At Intersection,No Control,Clear,Daylight,Dry,Fatal,Sideswipe,Driver,80 to 84,Fatal,47,East,"Automobile, Station Wagon",Changing Lanes,Lost control,Medical or Physical Disability,,,,,,,,,Yes,,,,,,,,,,Yes,139,Scarborough Village (139),209
-8843720.17313132,5426349.07878759,5809277,1144154,2009,2009/12/24 05:00:00+00,640,6,MARWILL ST,ALMORE AVE,,Local,North York,6,32,43.746845,-79.44449,Intersection,,No Control,Clear,Dark,Dry,Fatal,Pedestrian Collisions,Pedestrian,85 to 89,Fatal,48,South,Other,,,,Pedestrian hit at mid-block,Walking on Roadway with Traffic,Normal,,,,Yes,,Yes,,,,,,,,,,,33,Clanton Park (33),210
-8852113.66273713,5427905.58287661,6096025,1146660,2010,2010/01/08 05:00:00+00,1810,18,FINCH AVE W,YORK GATE BLVD,,Major Arterial,Etobicoke York,7,31,43.756945,-79.51989,Mid-Block,At Intersection,No Control,Clear,Dark,Dry,Fatal,Pedestrian Collisions,Pedestrian,85 to 89,Fatal,9,North,Other,,,,Pedestrian hit at mid-block,"Crossing, no Traffic Control",Normal,,,,Yes,,Yes,,,,,,,,,,,24,Black Creek (24),211
-8834669.89852982,5411859.9949412,6253428,1146864,2010,2010/01/10 05:00:00+00,329,3,KING ST E,PARLIAMENT ST,,Major Arterial,Toronto and East York,13,51,43.652745,-79.36319,Intersection,At Intersection,Traffic Signal,Clear,Dark,Dry,Fatal,Approaching,Driver,35 to 39,Fatal,1,East,"Automobile, Station Wagon",Going Ahead,Lost control,Had Been Drinking,,,,,,,,,Yes,,,,,,Yes,Yes,,,,73,Moss Park (73),212
-8856933.79668848,5415199.24436039,6097035,1147341,2010,2010/01/12 05:00:00+00,1240,12,MARTIN GROVE RD,EGLINTON AVE W,,Major Arterial,Etobicoke York,,23,43.674445,-79.56319,Intersection,At Intersection,Traffic Signal,Clear,Daylight,Dry,Fatal,Pedestrian Collisions,Pedestrian,30 to 34,Fatal,2,East,Other,,,,Vehicle is going straight thru inter.while ped cross with ROW,Crossing with right of way,Normal,,,,Yes,,Yes,,,,,Yes,,Yes,Yes,,,10,Princess-Rosethorn (10),213
-8844532.8054141,5412029.23661176,6097039,1147342,2010,2010/01/12 05:00:00+00,1317,13,DUNDAS ST W,RONCESVALLES AVE,,Minor Arterial,Toronto and East York,4,11,43.653845,-79.45179,Intersection,At Intersection,Traffic Signal,Clear,Daylight,Dry,Fatal,Pedestrian Collisions,Pedestrian,80 to 84,Fatal,3,East,Other,,,,Vehicle is going straight thru inter.while ped cross without ROW,Crossing without right of way,Inattentive,,,,Yes,,Yes,,,,,,,,,,,86,Roncesvalles (86),214
-8837675.52478124,5420433.67712209,6098472,1148390,2010,2010/01/18 05:00:00+00,655,6,MOUNT PLEASANT RD,EGLINTON AVE E,,Major Arterial,North York,,53,43.708445,-79.39019,Intersection,At Intersection,Traffic Signal,Clear,Dark,Dry,Fatal,Pedestrian Collisions,Pedestrian,60 to 64,Fatal,4,South,Other,,,,Pedestrian involved in a collision with transit vehicle anywhere along roadway,Crossing with right of way,Normal,,,,Yes,,,,,Yes,,,,Yes,,,,99,Mount Pleasant East (99),215
-8844165.45109449,5417800.69443447,6098826,1148773,2010,2010/01/20 05:00:00+00,700,7,DUFFERIN ST,PRESTON RD,,Major Arterial,Toronto and East York,,13,43.691345,-79.44849,Mid-Block,At Intersection,No Control,Clear,Dark,Dry,Fatal,Pedestrian Collisions,Pedestrian,50 to 54,Fatal,5,East,Other,,,,Pedestrian hit at mid-block,Running onto Roadway,Unknown,,,,Yes,,Yes,,,,,Yes,,,,,,107,Oakwood Village (107),216
-8834191.22471941,5415460.89554037,6099390,1149291,2010,2010/01/22 05:00:00+00,1132,11,DANFORTH AVE,BROADVIEW AVE,,Major Arterial,Toronto and East York,14,54,43.676145,-79.35889,Intersection,At Intersection,Traffic Signal,Clear,Daylight,Dry,Fatal,Pedestrian Collisions,Pedestrian,55 to 59,Fatal,6,East,Other,,,,Vehicle turns right while ped crosses with ROW at inter.,Crossing with right of way,Normal,,,,Yes,,,,Yes,,,,,Yes,,,,68,North Riverdale (68),217
-8833356.32853846,5412752.3950356,6099927,1149557,2010,2010/01/24 05:00:00+00,32,3,QUEEN ST E,MUNRO ST,,Major Arterial,Toronto and East York,14,55,43.658545,-79.35139,Intersection,At Intersection,No Control,Clear,Dark,Dry,Fatal,Pedestrian Collisions,Pedestrian,35 to 39,Fatal,7,North,Other,,,,Pedestrian involved in a collision with transit vehicle anywhere along roadway,"Crossing, no Traffic Control",Inattentive,,,,Yes,,,,,Yes,,,,,,,,70,South Riverdale (70),218
-8844699.78465029,5414629.79388363,6100287,1149753,2010,2010/01/25 05:00:00+00,1825,18,SYMINGTON AVE,DAVENPORT RD,,Minor Arterial,Toronto and East York,9,11,43.670745,-79.45329,Intersection,At Intersection,Traffic Signal,Clear,Dark,Wet,Fatal,Pedestrian Collisions,Pedestrian,35 to 39,Fatal,8,South,Other,,,,Pedestrian hit at mid-block,"Crossing, no Traffic Control",Unknown,,,,Yes,,Yes,,,,,,,,,,,91,Weston-Pellam Park (91),219
-8828146.57636934,5425794.34874127,6107407,1153073,2010,2010/02/15 05:00:00+00,9,9,LAWRENCE AVE E,PHARMACY AVE,,Major Arterial,Scarborough,21,41,43.743245,-79.30459,Intersection,,Traffic Signal,Clear,Dark,Dry,Fatal,Turning Movement,Driver,25 to 29,Fatal,10,West,"Automobile, Station Wagon",Turning Left,Driving Properly,Normal,,,,,,,,,Yes,,,,,Yes,,,,,,119,Wexford/Maryvale (119),220
-8826376.59646572,5419848.50495678,6914924,1153473,2010,2010/02/18 05:00:00+00,18,1,PHARMACY AVE,ST BEDES RD,,Minor Arterial,Scarborough,20,41,43.704645,-79.28869,Intersection,At Intersection,No Control,Clear,Dark,Wet,Fatal,SMV Other,Passenger,15 to 19,Fatal,11,,Other,,,,,,,,,,,,Yes,,,,,Yes,Yes,Yes,,,,120,Clairlea-Birchmount (120),221
-8833189.34930227,5411213.82798386,6111457,1154990,2010,2010/02/28 05:00:00+00,2300,23,VILLIERS ST,MUNITION ST,,Local,Toronto and East York,14,51,43.648545,-79.34989,Mid-Block,,No Control,Clear,Dark,Dry,Fatal,SMV Unattended Vehicle,Driver,50 to 54,Fatal,12,East,"Automobile, Station Wagon",Going Ahead,Exceeding Speed Limit,Other,,,,,,,,,Yes,,,,,,Yes,Yes,,,,70,South Riverdale (70),222
-8853393.83688125,5404477.92033225,6112331,1155407,2010,2010/03/02 05:00:00+00,1605,16,HORNER AVE,EDILOU DR,,Minor Arterial,Etobicoke York,3,22,43.604745,-79.53139,Intersection,,No Control,Clear,Daylight,Dry,Fatal,Pedestrian Collisions,Pedestrian,55 to 59,Fatal,13,South,Other,,,,Pedestrian hit at mid-block,"Crossing, no Traffic Control",Unknown,,,,Yes,,,,Yes,,,,,,,,,20,Alderwood (20),223
-8860507.15234294,5428306.3096166,6115276,1156744,2010,2010/03/09 05:00:00+00,1504,15,STEELES AVE W,GIHON SPRING DR,,Major Arterial,Etobicoke York,1,23,43.759545,-79.59529,Mid-Block,,No Control,Clear,Daylight,Dry,Fatal,Approaching,Driver,45 to 49,Fatal,14,East,"Automobile, Station Wagon",Going Ahead,Lost control,Unknown,,,,,,,,,Yes,,Yes,,,,,,,,,2,Mount Olive-Silverstone-Jamestown (2),224
-8834180.09277033,5414937.6005925,6116479,1157272,2010,2010/03/12 05:00:00+00,523,5,ROYAL DR,DON VALLEY PARKWAY  N,,,Toronto and East York,14,55,43.672745,-79.35879,Mid-Block,,No Control,Clear,Dark,Dry,Fatal,SMV Other,Truck Driver,30 to 34,Fatal,15,South,Truck - Open,Going Ahead,Speed too Fast For Condition,Normal,,,,,,,,,,,Yes,,,Yes,Yes,Yes,,,,68,North Riverdale (68),225
-8829515.80610609,5437836.40740168,6253540,1162012,2010,2010/04/13 04:00:00+00,559,5,STEELES AVE E,BIRCHMOUNT RD,,Major Arterial,Scarborough,22,42,43.821345,-79.31689,Intersection,At Intersection,Traffic Signal,Clear,Dawn,Dry,Fatal,Angle,Passenger,70 to 74,Fatal,16,,Other,,,,,,,,,,,,Yes,,,,,Yes,,Yes,Yes,,Yes,116,Steeles (116),226
-8837241.37876715,5410798.45879908,6139522,1167187,2010,2010/05/06 04:00:00+00,1630,16,WELLINGTON ST W,SIMCOE ST,,Minor Arterial,Toronto and East York,10,52,43.645845,-79.38629,Mid-Block,,No Control,Clear,Daylight,Dry,Fatal,Angle,Passenger,80 to 84,Fatal,17,,Other,,,,,,,,,,,,Yes,,,,,Yes,,Yes,,,,77,Waterfront Communities-The Island (77),227
-8843430.74245525,5411506.13601037,6142299,1168396,2010,2010/05/13 04:00:00+00,1136,11,DUNDAS ST W,COLLEGE ST,,Minor Arterial,Toronto and East York,9,11,43.650445,-79.44189,Mid-Block,,No Control,Clear,Daylight,Dry,Fatal,Pedestrian Collisions,Pedestrian,65 to 69,Fatal,18,North,Other,,,,Pedestrian hit at mid-block,"Crossing, no Traffic Control",Normal,,,,Yes,,Yes,,,,,,,,,,,83,Dufferin Grove (83),228
-8817292.92601699,5429539.42420425,6145164,1169790,2010,2010/05/25 04:00:00+00,1028,10,ORTON PARK RD,AMBOY RD,,Minor Arterial,Scarborough,24,43,43.767545,-79.20709,Mid-Block,,No Control,Clear,Daylight,Dry,Fatal,Approaching,Motorcycle Driver,50 to 54,Fatal,19,North,Motorcycle,Going Ahead,Driving Properly,Unknown,,,,,,,,,Yes,Yes,,,,,,,,,,135,Morningside (135),229
-8843564.3258442,5415737.94604587,6148451,1171250,2010,2010/06/03 04:00:00+00,120,1,DUFFERIN ST,ST CLAIR AVE W,,Major Arterial,Toronto and East York,9,13,43.677945,-79.44309,Intersection,At Intersection,Traffic Signal,Rain,Dark,Wet,Fatal,Pedestrian Collisions,Pedestrian,50 to 54,Fatal,20,West,Other,,,,Vehicle is going straight thru inter.while ped cross without ROW,Crossing without right of way,Unknown,,,,Yes,,Yes,,,,,,,,,,,92,Corso Italia-Davenport (92),230
-8837652.92692461,5412783.01512006,6150246,1171997,2010,2010/06/06 04:00:00+00,822,8,UNIVERSITY AVE,ORDE ST,,Major Arterial,Toronto and East York,11,52,43.658744,-79.389987,Intersection,,No Control,Rain,Daylight,Wet,Fatal,Pedestrian Collisions,Pedestrian,40 to 44,Fatal,22,West,Other,,,,Vehicle is going straight thru inter.while ped cross without ROW,"Crossing, no Traffic Control",Unknown,,,,Yes,,,,,Yes,,,,,,,,76,Bay Street Corridor (76),231
-8854674.01102537,5417385.02895813,6152497,1172992,2010,2010/06/12 04:00:00+00,916,9,ISLINGTON AVE,THE WESTWAY,,Major Arterial,Etobicoke York,2,23,43.688645,-79.54289,Intersection,At Intersection,Traffic Signal,Clear,Daylight,Dry,Fatal,Angle,Driver,25 to 29,Fatal,21,East,"Automobile, Station Wagon",Going Ahead,Driving Properly,Unknown,,,,,,,,,Yes,,,,,,,Yes,Yes,,,6,Kingsview Village-The Westway (6),232
-8856967.19253572,5419879.30256699,6161273,1176916,2010,2010/07/13 04:00:00+00,2035,20,KIPLING AVE,BELFIELD RD,,Major Arterial,Etobicoke York,1,23,43.704845,-79.56349,Intersection,At Intersection,Traffic Signal,Clear,Dark,Dry,Fatal,Angle,Driver,65 to 69,Fatal,23,South,"Automobile, Station Wagon",Going Ahead,Disobeyed Traffic Control,Unknown,,,,,,,,,Yes,,Yes,,,,,Yes,Yes,,,1,West Humber-Clairville (1),233
-8848918.79335136,5413860.32198345,6279258,1177531,2010,2010/07/16 04:00:00+00,1647,16,JANE ST,DUNDAS ST W,,Major Arterial,Toronto and East York,4,11,43.665745,-79.49119,Intersection,At Intersection,Traffic Signal,Clear,Daylight,Dry,Fatal,Turning Movement,Passenger,85 to 89,Fatal,25,,Other,,,,,,,,,,,,Yes,,,Yes,,Yes,,Yes,,,,89,Runnymede-Bloor West Village (89),234
-8848918.79335136,5413860.32198345,6279259,1177531,2010,2010/07/16 04:00:00+00,1647,16,JANE ST,DUNDAS ST W,,Major Arterial,Toronto and East York,4,11,43.665745,-79.49119,Intersection,At Intersection,Traffic Signal,Clear,Daylight,Dry,Fatal,Turning Movement,Passenger,90 to 94,Fatal,24,,Other,,,,,,,,,,,,Yes,,,Yes,,Yes,,Yes,,,,89,Runnymede-Bloor West Village (89),235
-8819775.35066168,5427890.17065742,6162947,1177627,2010,2010/07/18 04:00:00+00,110,1,GREENCEDAR CRCT,DAPHNE RD,,Collector,Scarborough,24,43,43.756845,-79.22939,Intersection,At Intersection,No Control,Clear,Dark,Dry,Fatal,SMV Other,Passenger,15 to 19,Fatal,26,,Other,,,,,,,,,,,,Yes,,,,,Yes,,,,,,137,Woburn (137),236
-8839512.29637933,5425933.02812536,6167895,1179891,2010,2010/07/29 04:00:00+00,1149,11,YONGE ST,YORK MILLS RD,,Major Arterial,North York,,32,43.744145,-79.40669,Intersection,,Traffic Signal,Clear,Daylight,Dry,Fatal,Angle,Driver,85 to 89,Fatal,28,South,"Automobile, Station Wagon",Going Ahead,Disobeyed Traffic Control,Normal,,,,,,,,,Yes,,,,,,,Yes,Yes,,,40,St.Andrew-Windfields (40),237
-8842428.86703811,5431651.51604546,6168415,1180110,2010,2010/07/31 04:00:00+00,700,7,GRANTBROOK ST,CHARLTON BLVD,,Collector,North York,18,32,43.781245,-79.43289,Intersection,At Intersection,Stop Sign,Clear,Daylight,Dry,Fatal,Angle,Passenger,25 to 29,Fatal,27,,Other,,,,,,,,,,,,Yes,,,,,Yes,Yes,Yes,,Yes,,36,Newtonbrook West (36),238
-8828324.24227664,5413644.7274526,6179026,1184434,2010,2010/08/20 04:00:00+00,2215,22,LAKE SHORE BLVD E,JOSEPH DUGGAN  RD,,Major Arterial,Toronto and East York,19,55,43.664344,-79.306186,Intersection,,Traffic Signal,Clear,Dark,Dry,Fatal,Pedestrian Collisions,Pedestrian,15 to 19,Fatal,29,North,Other,,,,Pedestrian involved in a collision with transit vehicle anywhere along roadway,Crossing without right of way,Unknown,,,,Yes,,,,,Yes,,,,,,,,70,South Riverdale (70),239
-8838465.89316587,5411583.06071214,6254162,1189134,2010,2010/09/14 04:00:00+00,1055,10,SPADINA AVE,SULLIVAN ST,,Major Arterial,Toronto and East York,10,52,43.650945,-79.39729,Intersection,,No Control,Clear,Daylight,Dry,Fatal,Pedestrian Collisions,Pedestrian,80 to 84,Fatal,30,West,Other,,,,Pedestrian involved in a collision with transit vehicle anywhere along roadway,"Crossing, no Traffic Control",Unknown,,,,Yes,,,,,Yes,,,,,,,,78,Kensington-Chinatown (78),240
-8852792.71163097,5419632.92456226,6279810,1189375,2010,2010/09/15 04:00:00+00,418,4,WESTON RD,CHURCH ST,,Minor Arterial,Etobicoke York,5,12,43.703245,-79.52599,Mid-Block,,No Control,Clear,Dark,Dry,Fatal,SMV Unattended Vehicle,Driver,25 to 29,Fatal,31,North,"Automobile, Station Wagon",Going Ahead,Lost control,Had Been Drinking,,,,,,,,,Yes,,,,,,Yes,Yes,,,,113,Weston (113),241
-8860228.85361596,5420880.28083961,6196038,1191546,2010,2010/09/26 04:00:00+00,2235,22,HIGHWAY 27  N,VICE REGENT BLVD,,Major Arterial,Etobicoke York,1,23,43.711345,-79.59279,Intersection,At Intersection,Stop Sign,Clear,Dark,Dry,Fatal,Turning Movement,Passenger,25 to 29,Fatal,32,,Other,,,,,,,,,,,,Yes,,,,,Yes,Yes,Yes,,Yes,,1,West Humber-Clairville (1),242
-8845334.30574782,5409583.22655009,6279955,1191582,2010,2010/09/26 04:00:00+00,2309,23,LAKE SHORE BLVD W,COLBORNE LODGE DR,,Major Arterial,Toronto and East York,4,11,43.637945,-79.45899,Intersection,At Intersection,Traffic Signal,Clear,Dark,Dry,Fatal,Cyclist Collisions,Cyclist,25 to 29,Fatal,33,South,Bicycle,Going Ahead,,,,,,"Cyclist without ROW rides into path of motorist at inter, lnwy, dwy-Cyclist not turn.",Disobeyed Traffic Control,Had Been Drinking,,Yes,Yes,,,,,,,,,,,85,South Parkdale (85),243
-8839779.46315723,5429261.95904427,6201189,1193747,2010,2010/10/07 04:00:00+00,2044,20,DORIS AVE,HOLLYWOOD AVE,,Minor Arterial,North York,18,32,43.765745,-79.40909,Mid-Block,,Pedestrian Crossover,Clear,Dark,Dry,Fatal,Pedestrian Collisions,Pedestrian,40 to 44,Fatal,34,West,Other,,,,Pedestrian hit a PXO/ped. Mid-block signal,"Crossing, Pedestrian Crossover",Normal,,,,Yes,,Yes,,,,,,,Yes,,,,51,Willowdale East (51),244
-8844989.21532636,5413352.50563866,6221252,1202173,2010,2010/11/17 05:00:00+00,818,8,DUNDAS ST W,KENNETH AVE,,Minor Arterial,Toronto and East York,4,11,43.662445,-79.45589,Intersection,,No Control,Rain,Daylight,Wet,Fatal,Pedestrian Collisions,Pedestrian,50 to 54,Fatal,35,West,Other,,,,Vehicle is going straight thru inter.while ped cross without ROW,"Crossing, no Traffic Control",Unknown,,,,Yes,,,,Yes,,,,,,,,,88,High Park North (88),245
-8837898.16376283,5409660.13524705,6280489,1202989,2010,2010/11/19 05:00:00+00,744,7,LOWER SPADINA AVE,LAKE SHORE BLVD W,,Major Arterial,Toronto and East York,10,52,43.638445,-79.39219,Intersection,At Intersection,Traffic Signal,Clear,Daylight,Dry,Fatal,Cyclist Collisions,Cyclist,60 to 64,Fatal,36,East,Bicycle,Pulling Away from Shoulder or Curb,,,,,,"Cyclist without ROW rides into path of motorist at inter, lnwy, dwy-Cyclist not turn.",Disobeyed Traffic Control,Normal,,Yes,,,,Yes,,,,,,,,77,Waterfront Communities-The Island (77),246
-8841927.92932954,5416507.57439417,6226426,1204296,2010,2010/11/26 05:00:00+00,1719,17,HUMEWOOD GDNS,RUSHTON RD,,Local,Toronto and East York,12,13,43.682945,-79.42839,Intersection,At Intersection,Stop Sign,Clear,Dark,Dry,Fatal,Pedestrian Collisions,Pedestrian,75 to 79,Fatal,38,North,Other,,,,Vehicle is going straight thru inter.while ped cross with ROW,Crossing with right of way,Normal,,,,Yes,,Yes,,,,,,,Yes,,,,106,Humewood-Cedarvale (106),247
-8820688.17048619,5429770.65154918,6256934,1205835,2010,2010/12/05 05:00:00+00,421,4,422 BRIMORTON DR,,,Collector,Scarborough,24,43,43.769045,-79.23759,Mid-Block,,No Control,Clear,Dark,Dry,Fatal,SMV Other,Driver,25 to 29,Fatal,37,West,"Automobile, Station Wagon",Going Ahead,Lost control,Had Been Drinking,,,,,,,,,Yes,,,,,Yes,,,,,,137,Woburn (137),248
